geonameid,asciiname,latitude,longitude,country_code,population,timezone
49593,Yeed,4.55,43.03333,SO,8429,Africa/Mogadishu
49747,Xuddur,4.12129,43.88945,SO,12500,Africa/Mogadishu
50064,Xarardheere,4.6544,47.8575,SO,2018,Africa/Mogadishu
50672,Wanlaweyn,2.6185,44.8938,SO,22022,Africa/Mogadishu
50814,Waajid,3.80958,43.24627,SO,6666,Africa/Mogadishu
51299,Tayeeglow,4.01897,44.51111,SO,2119,Africa/Mogadishu
52381,Saacow,1.62794,42.44067,SO,7893,Africa/Mogadishu
52867,Qoryooley,1.78784,44.52999,SO,51720,Africa/Mogadishu
53157,Qandala,11.47197,49.87282,SO,15923,Africa/Mogadishu
53372,Oodweyne,9.4092,45.06397,SO,5491,Africa/Mogadishu
53654,Mogadishu,2.03711,45.34375,SO,2587183,Africa/Mogadishu
54225,Marka,1.71594,44.77166,SO,230100,Africa/Mogadishu
54460,Mahaddayweyne,2.9726,45.5347,SO,8273,Africa/Mogadishu
54715,Luuq,3.80315,42.54417,SO,33820,Africa/Mogadishu
55223,Las Khorey,11.1595,48.1967,SO,6941,Africa/Mogadishu
55671,Kismayo,-0.35817,42.54536,SO,234852,Africa/Mogadishu
56166,Jilib,0.48829,42.78535,SO,43694,Africa/Mogadishu
56335,Jawhar,2.78087,45.50048,SO,47086,Africa/Mogadishu
56399,Jamaame,0.06968,42.74497,SO,185270,Africa/Mogadishu
56414,Jalalaqsi,3.3766,45.5996,SO,9743,Africa/Mogadishu
56505,Iskushuban,10.2837,50.23,SO,5759,Africa/Mogadishu
57000,Hobyo,5.3505,48.5268,SO,12564,Africa/Mogadishu
57289,Hargeysa,9.56,44.065,SO,477876,Africa/Mogadishu
58933,Garoowe,8.40207,48.48284,SO,57300,Africa/Mogadishu
58994,Garbahaarrey,3.32892,42.22091,SO,12652,Africa/Mogadishu
59611,Gaalkacyo,6.76972,47.43083,SO,61200,Africa/Mogadishu
60019,Eyl,7.9803,49.8164,SO,18904,Africa/Mogadishu
60457,Dujuuma,1.25311,42.57377,SO,2432,Africa/Mogadishu
60928,Dhuusamarreeb,5.53597,46.38666,SO,9000,Africa/Mogadishu
62691,Ceerigaabo,10.61616,47.36795,SO,33853,Africa/Mogadishu
62788,Ceeldheer,3.84878,47.18064,SO,26562,Africa/Mogadishu
62821,Ceelbuur,4.68501,46.6176,SO,9031,Africa/Mogadishu
62854,Ceek,8.99907,45.35824,SO,4325,Africa/Mogadishu
63344,Cadale,2.7603,46.3222,SO,5385,Africa/Mogadishu
63571,Buurhakaba,2.80257,44.07805,SO,27792,Africa/Mogadishu
63580,Buur Gaabo,-1.21933,41.83736,SO,3096,Africa/Mogadishu
63689,Buulobarde,3.85375,45.56744,SO,16928,Africa/Mogadishu
63795,Burao,9.52213,45.53363,SO,99270,Africa/Mogadishu
64013,Bosaso,11.28421,49.18158,SO,74287,Africa/Mogadishu
64412,Bereeda,11.87037,51.05795,SO,11262,Africa/Mogadishu
64435,Berbera,10.43959,45.01432,SO,242344,Africa/Mogadishu
64460,Beledweyne,4.73583,45.20361,SO,55410,Africa/Mogadishu
64536,Baidoa,3.11383,43.6498,SO,129839,Africa/Mogadishu
64670,Bargaal,11.28636,51.0773,SO,6798,Africa/Mogadishu
64814,Bandarbeyla,9.4942,50.8122,SO,13753,Africa/Mogadishu
65170,Baardheere,2.34464,42.27644,SO,42240,Africa/Mogadishu
65785,Afgooye,2.1381,45.1212,SO,65461,Africa/Mogadishu
80509,Bardiyah,31.75615,25.08653,LY,9149,Africa/Tripoli
81302,Tobruk,32.08361,23.97639,LY,121052,Africa/Tripoli
81604,Suluq,31.66818,20.25205,LY,15543,Africa/Tripoli
86049,Gialo,29.03333,21.55,LY,3334,Africa/Tripoli
87205,Darnah,32.76704,22.63669,LY,78782,Africa/Tripoli
88319,Benghazi,32.11486,20.06859,LY,650629,Africa/Tripoli
88380,Az Zuwaytinah,30.9522,20.12022,LY,21015,Africa/Tripoli
88533,Awjilah,29.10806,21.28694,LY,6610,Africa/Tripoli
88562,At Taj,24.20487,23.2857,LY,46050,Africa/Tripoli
88834,Tukrah,32.53414,20.57911,LY,23164,Africa/Tripoli
88835,Al Qubbah,32.76163,22.24237,LY,24631,Africa/Tripoli
88903,Al Marj,32.48798,20.83174,LY,85315,Africa/Tripoli
88962,Al Jawf,24.1989,23.29093,LY,17320,Africa/Tripoli
88967,Al Jaghbub,29.74262,24.51676,LY,2768,Africa/Tripoli
89055,Al Bayda',32.76272,21.75506,LY,74594,Africa/Tripoli
89087,Al Abyar,32.19,20.59653,LY,32563,Africa/Tripoli
89113,Ajdabiya,30.75545,20.22625,LY,134358,Africa/Tripoli
145531,Saurimo,-9.66078,20.39155,AO,40498,Africa/Luanda
145724,Lucapa,-8.41915,20.74466,AO,20115,Africa/Luanda
148730,Zanzibar,-6.16394,39.19793,TZ,403658,Africa/Dar_es_Salaam
148842,Wete,-5.05589,39.72938,TZ,26450,Africa/Dar_es_Salaam
148942,Vwawa,-9.11667,32.93333,TZ,40145,Africa/Dar_es_Salaam
148987,Vikindu,-7.00667,39.29849,TZ,23307,Africa/Dar_es_Salaam
149027,Uyovu,-3.28333,31.52583,TZ,60849,Africa/Dar_es_Salaam
149039,Uwelini,-5.4,39.68333,TZ,2472,Africa/Dar_es_Salaam
149050,Uvinza,-5.10361,30.39111,TZ,24650,Africa/Dar_es_Salaam
149070,Utete,-7.98598,38.75795,TZ,11888,Africa/Dar_es_Salaam
149114,Usoke,-5.16667,32.35,TZ,7295,Africa/Dar_es_Salaam
149129,Ushirombo,-3.49194,31.96389,TZ,95052,Africa/Dar_es_Salaam
149132,Usevia,-7.1,31.23333,TZ,17742,Africa/Dar_es_Salaam
149151,Usagara,-2.68333,33,TZ,15514,Africa/Dar_es_Salaam
149155,Usa River,-3.36667,36.85,TZ,18726,Africa/Dar_es_Salaam
149172,Urambo,-5.06667,32.05,TZ,23724,Africa/Dar_es_Salaam
149239,Ulenje,-8.93333,33.68333,TZ,12219,Africa/Dar_es_Salaam
149402,Tunduma,-9.3,32.76667,TZ,36556,Africa/Dar_es_Salaam
149418,Tumbi,-5.06667,32.73333,TZ,32900,Africa/Dar_es_Salaam
149437,Tukuyu,-9.25,33.65,TZ,28398,Africa/Dar_es_Salaam
149512,Tinde,-3.88333,33.2,TZ,22082,Africa/Dar_es_Salaam
149581,Tarime,-1.35,34.36667,TZ,33094,Africa/Dar_es_Salaam
149606,Tanga,-5.06893,39.09875,TZ,224876,Africa/Dar_es_Salaam
149658,Tabora,-5.01622,32.82663,TZ,145292,Africa/Dar_es_Salaam
149703,Sumbawanga,-7.96667,31.61667,TZ,89161,Africa/Dar_es_Salaam
149768,Soni,-4.85,38.36667,TZ,12402,Africa/Dar_es_Salaam
149775,Songwa,-3.51667,33.51667,TZ,23618,Africa/Dar_es_Salaam
149792,Somanda,-3.36667,33.95,TZ,33932,Africa/Dar_es_Salaam
149812,Sokoni,-6.43333,39.55,TZ,25821,Africa/Dar_es_Salaam
149854,Sirari,-1.25367,34.47596,TZ,24317,Africa/Dar_es_Salaam
149879,Singida,-4.81629,34.74358,TZ,62432,Africa/Dar_es_Salaam
149929,Sikonge,-5.63333,32.76667,TZ,27113,Africa/Dar_es_Salaam
150006,Shinyanga,-3.66393,33.42118,TZ,107362,Africa/Dar_es_Salaam
150037,Shelui,-4.36667,34.2,TZ,24817,Africa/Dar_es_Salaam
150099,Sepuka,-4.75,34.53333,TZ,25657,Africa/Dar_es_Salaam
150276,Same,-4.06667,37.73333,TZ,17455,Africa/Dar_es_Salaam
150436,Rulenge,-2.7175,30.6325,TZ,22069,Africa/Dar_es_Salaam
150453,Rujewa,-8.7,34.38333,TZ,29228,Africa/Dar_es_Salaam
150634,Puma,-5,34.73333,TZ,17092,Africa/Dar_es_Salaam
150689,Poli,-3.33333,36.8,TZ,9568,Africa/Dar_es_Salaam
150793,Pangani,-5.42526,38.97473,TZ,8343,Africa/Dar_es_Salaam
150885,Old Shinyanga,-3.55,33.4,TZ,23747,Africa/Dar_es_Salaam
150930,Nzega,-4.21667,33.18333,TZ,26584,Africa/Dar_es_Salaam
151062,Nyanguge,-2.55,33.2,TZ,10746,Africa/Dar_es_Salaam
151108,Nyamuswa,-1.9,34.01667,TZ,16507,Africa/Dar_es_Salaam
151211,Nyalikungu,-3.18333,33.78333,TZ,24648,Africa/Dar_es_Salaam
151262,Nyakahanga,-1.60333,31.14139,TZ,14611,Africa/Dar_es_Salaam
151266,Nyakabindi,-2.63333,33.98333,TZ,18428,Africa/Dar_es_Salaam
151363,Nsunga,-1.14389,31.39472,TZ,20049,Africa/Dar_es_Salaam
151373,Nshamba,-1.79833,31.55111,TZ,19815,Africa/Dar_es_Salaam
151424,Nkove,-7.95,30.85,TZ,5389,Africa/Dar_es_Salaam
151445,Nkoaranga,-3.33333,36.8,TZ,14738,Africa/Dar_es_Salaam
151479,Njombe,-9.33333,34.76667,TZ,46724,Africa/Dar_es_Salaam
151567,Nguruka,-5.10917,31.04194,TZ,39135,Africa/Dar_es_Salaam
151599,Ngudu,-2.96667,33.33333,TZ,22658,Africa/Dar_es_Salaam
151610,Ngorongoro,-3.23973,35.48747,TZ,10836,Africa/Dar_es_Salaam
151678,Ngerengere,-6.75,38.11667,TZ,17181,Africa/Dar_es_Salaam
151711,Ngara,-2.51222,30.65583,TZ,16890,Africa/Dar_es_Salaam
151720,Nganane,-6.4,39.55,TZ,1929,Africa/Dar_es_Salaam
151775,Ndungu,-4.36667,38.05,TZ,14545,Africa/Dar_es_Salaam
151872,Ndago,-4.6,34.35,TZ,13012,Africa/Dar_es_Salaam
151920,Nansio,-2.13333,33.05,TZ,6437,Africa/Dar_es_Salaam
151929,Nangwa,-4.46667,35.45,TZ,18595,Africa/Dar_es_Salaam
151986,Namanyere,-7.51667,31.05,TZ,28218,Africa/Dar_es_Salaam
151988,Namanga,-2.55116,36.78377,TZ,12048,Africa/Dar_es_Salaam
152009,Nakatunguru,-2.11667,33.06667,TZ,6064,Africa/Dar_es_Salaam
152042,Naberera,-4.2,36.93333,TZ,13499,Africa/Dar_es_Salaam
152169,Mwembe,-4.15,37.85,TZ,9032,Africa/Dar_es_Salaam
152183,Mwaya,-9.55,33.95,TZ,7558,Africa/Dar_es_Salaam
152224,Mwanza,-2.51667,32.9,TZ,436801,Africa/Dar_es_Salaam
152265,Mwanga,-4.8,38.2,TZ,12846,Africa/Dar_es_Salaam
152376,Mwadui,-3.55,33.6,TZ,23296,Africa/Dar_es_Salaam
152403,Mvomero,-6.25,38.66667,TZ,31324,Africa/Dar_es_Salaam
152451,Musoma,-1.5,33.8,TZ,121119,Africa/Dar_es_Salaam
152497,Muriti,-1.98333,32.91667,TZ,20254,Africa/Dar_es_Salaam
152546,Mungaa,-4.96667,34.88333,TZ,16715,Africa/Dar_es_Salaam
152570,Muleba,-1.83972,31.65444,TZ,11555,Africa/Dar_es_Salaam
152632,Muheza,-5.16667,38.78333,TZ,17000,Africa/Dar_es_Salaam
152663,Mugumu,-1.85,34.7,TZ,18431,Africa/Dar_es_Salaam
152689,Mugango,-1.68333,33.7,TZ,10550,Africa/Dar_es_Salaam
152718,Mtwango,-9.01667,34.8,TZ,19040,Africa/Dar_es_Salaam
152743,Mto wa Mbu,-3.35,35.85,TZ,17754,Africa/Dar_es_Salaam
152781,Mtinko,-4.55,34.85,TZ,26725,Africa/Dar_es_Salaam
152793,Mtimbira,-8.78333,36.35,TZ,11122,Africa/Dar_es_Salaam
152877,Mtambile,-5.38333,39.7,TZ,6797,Africa/Dar_es_Salaam
152933,Msowero,-6.53333,37.2,TZ,17861,Africa/Dar_es_Salaam
153046,Msanga,-6.05,36.03333,TZ,5527,Africa/Dar_es_Salaam
153094,Mpwapwa,-6.35,36.48333,TZ,19806,Africa/Dar_es_Salaam
153176,Mpanda,-6.34379,31.06951,TZ,73338,Africa/Dar_es_Salaam
153209,Moshi,-3.35,37.33333,TZ,156959,Africa/Dar_es_Salaam
153220,Morogoro,-6.82102,37.66122,TZ,250902,Africa/Dar_es_Salaam
153247,Monduli,-3.3,36.45,TZ,5694,Africa/Dar_es_Salaam
153352,Mlowo,-9,32.98333,TZ,18737,Africa/Dar_es_Salaam
153384,Mlimba,-8.8,35.81667,TZ,34970,Africa/Dar_es_Salaam
153408,Mlangali,-9.78333,34.51667,TZ,15168,Africa/Dar_es_Salaam
153412,Mlandizi,-6.7,38.73333,TZ,29394,Africa/Dar_es_Salaam
153423,Mlalo,-4.93333,38.93333,TZ,15576,Africa/Dar_es_Salaam
153482,Mkuranga,-7.11799,39.20782,TZ,28037,Africa/Dar_es_Salaam
153585,Mkokotoni,-5.87506,39.25523,TZ,2572,Africa/Dar_es_Salaam
153709,Mwandiga,-4.83,29.65806,TZ,16822,Africa/Dar_es_Salaam
153759,Misungwi,-2.85,33.08333,TZ,35530,Africa/Dar_es_Salaam
153772,Misasi,-3,33.08333,TZ,14170,Africa/Dar_es_Salaam
153871,Mikumi,-7.40409,36.98309,TZ,16780,Africa/Dar_es_Salaam
153955,Micheweni,-4.96667,39.83333,TZ,9838,Africa/Dar_es_Salaam
154002,Mhango,-3.28333,32.85,TZ,21553,Africa/Dar_es_Salaam
154097,Mgandu,-5.95,34.13333,TZ,23718,Africa/Dar_es_Salaam
154309,Mbumi,-7.90577,39.21047,TZ,4305,Africa/Dar_es_Salaam
154313,Mbulu,-3.85,35.53333,TZ,13430,Africa/Dar_es_Salaam
154321,Mbuguni,-3.56667,36.95,TZ,16442,Africa/Dar_es_Salaam
154380,Mbeya,-8.9,33.45,TZ,291649,Africa/Dar_es_Salaam
154470,Mazinde,-4.8,38.21667,TZ,20534,Africa/Dar_es_Salaam
154566,Matui,-4.8,38.25,TZ,20241,Africa/Dar_es_Salaam
154576,Matonga,-2.38333,34.08333,TZ,11828,Africa/Dar_es_Salaam
154635,Matamba,-8.98333,33.96667,TZ,10642,Africa/Dar_es_Salaam
154638,Matai,-8.3,31.51667,TZ,24070,Africa/Dar_es_Salaam
154648,Maswa,-2.68333,33.98333,TZ,22025,Africa/Dar_es_Salaam
154654,Masumbwe,-3.63333,32.18333,TZ,34780,Africa/Dar_es_Salaam
154666,Masoko,-9.33333,33.75,TZ,12720,Africa/Dar_es_Salaam
154780,Maramba,-5.05,38.61667,TZ,26531,Africa/Dar_es_Salaam
154915,Maneromango,-7.1988,38.78478,TZ,9402,Africa/Dar_es_Salaam
154995,Malya,-2.98333,33.51667,TZ,12627,Africa/Dar_es_Salaam
155016,Malinyi,-8.93333,36.13333,TZ,27041,Africa/Dar_es_Salaam
155052,Malangali,-8.56667,34.85,TZ,7112,Africa/Dar_es_Salaam
155056,Malampaka,-3.13333,33.53333,TZ,16916,Africa/Dar_es_Salaam
155076,Makuyuni,-4.73333,38.1,TZ,15516,Africa/Dar_es_Salaam
155093,Makungu,-8.73333,35.28333,TZ,10291,Africa/Dar_es_Salaam
155101,Makumbako,-8.85,34.83333,TZ,53003,Africa/Dar_es_Salaam
155187,Makanya,-4.36667,37.83333,TZ,9505,Africa/Dar_es_Salaam
155244,Majengo,-5.15,38.98333,TZ,9874,Africa/Dar_es_Salaam
155263,Mahonda,-6.45,39.46667,TZ,5569,Africa/Dar_es_Salaam
155274,Mahenge,-8.68333,36.71667,TZ,7768,Africa/Dar_es_Salaam
155285,Mahanje,-9.93333,35.33333,TZ,15009,Africa/Dar_es_Salaam
155307,Kihangara,-2.58333,33.35,TZ,19082,Africa/Dar_es_Salaam
155310,Magugu,-4.01667,35.76667,TZ,26131,Africa/Dar_es_Salaam
155321,Magomeni,-6.8,39.25,TZ,19086,Africa/Dar_es_Salaam
155322,Magomeni,-5.23333,38.11667,TZ,8944,Africa/Dar_es_Salaam
155334,Magole,-6.37697,37.37373,TZ,18753,Africa/Dar_es_Salaam
155405,Mafinga,-7.25,35.06667,TZ,34958,Africa/Dar_es_Salaam
155514,Mabamba,-3.59833,30.50194,TZ,14140,Africa/Dar_es_Salaam
155515,Mabama,-5.13333,32.53333,TZ,15320,Africa/Dar_es_Salaam
155569,Lushoto,-4.78333,38.28333,TZ,24197,Africa/Dar_es_Salaam
155584,Lupiro,-8.38333,36.66667,TZ,11430,Africa/Dar_es_Salaam
155743,Lugoba,-6.45,38.33333,TZ,16902,Africa/Dar_es_Salaam
155848,Longido,-2.73319,36.69773,TZ,9403,Africa/Dar_es_Salaam
155921,Liwale,-9.76667,37.93333,TZ,19296,Africa/Dar_es_Salaam
156025,Lembeni,-3.78333,37.61667,TZ,16008,Africa/Dar_es_Salaam
156080,Lalago,-3.45,33.95,TZ,22551,Africa/Dar_es_Salaam
156098,Laela,-8.56667,32.05,TZ,19185,Africa/Dar_es_Salaam
156111,Kyela,-9.58333,33.85,TZ,30684,Africa/Dar_es_Salaam
156124,Kyaka,-1.25222,31.42028,TZ,13810,Africa/Dar_es_Salaam
156312,Kwakoa,-3.76667,37.71667,TZ,7514,Africa/Dar_es_Salaam
156493,Kongwa,-6.2,36.41667,TZ,11840,Africa/Dar_es_Salaam
156510,Kondoa,-4.9,35.78333,TZ,23518,Africa/Dar_es_Salaam
156513,Konde,-4.95,39.75,TZ,9530,Africa/Dar_es_Salaam
156588,Koani Ndogo,-6.13333,39.28333,TZ,2311,Africa/Dar_es_Salaam
156589,Koani,-6.13333,39.28333,TZ,2211,Africa/Dar_es_Salaam
156627,Kiwira,-9.17307,33.54152,TZ,21342,Africa/Dar_es_Salaam
156636,Kiwengwa,-5.98957,39.3768,TZ,2429,Africa/Dar_es_Salaam
156918,Kisiwani,-4.13333,37.95,TZ,7126,Africa/Dar_es_Salaam
156963,Kishapu,-3.61667,33.86667,TZ,16371,Africa/Dar_es_Salaam
156974,Kisesa,-3.08333,34.15,TZ,29804,Africa/Dar_es_Salaam
156996,Kisarawe,-6.9,39.06667,TZ,12507,Africa/Dar_es_Salaam
157014,Kisanga,-7.43622,37.70337,TZ,10978,Africa/Dar_es_Salaam
157045,Kirya,-3.91667,37.48333,TZ,3998,Africa/Dar_es_Salaam
157107,Kirando,-7.41667,30.6,TZ,33111,Africa/Dar_es_Salaam
157198,Kiomboi,-4.26667,34.36667,TZ,23519,Africa/Dar_es_Salaam
157247,Kintinku,-5.88333,35.23333,TZ,7906,Africa/Dar_es_Salaam
157268,Kingori,-3.28333,36.98333,TZ,22839,Africa/Dar_es_Salaam
157366,Kimamba,-6.78333,37.13333,TZ,11235,Africa/Dar_es_Salaam
157403,Kilosa,-6.83333,36.98333,TZ,91889,Africa/Dar_es_Salaam
157429,Kilindoni,-7.91446,39.66204,TZ,12409,Africa/Dar_es_Salaam
157448,Kilimatinde,-5.85,34.95,TZ,5975,Africa/Dar_es_Salaam
157632,Kijini,-5.85,39.31667,TZ,3720,Africa/Dar_es_Salaam
157653,Kihurio,-4.46667,38.06667,TZ,8377,Africa/Dar_es_Salaam
157738,Kigoma,-4.87694,29.62667,TZ,164268,Africa/Dar_es_Salaam
157826,Kidodi,-7.60361,37.00438,TZ,35953,Africa/Dar_es_Salaam
157863,Kidatu,-7.69916,36.95722,TZ,37542,Africa/Dar_es_Salaam
157960,Kibondo,-3.58639,30.72028,TZ,28666,Africa/Dar_es_Salaam
157977,Kibiti,-7.72178,38.93749,TZ,30163,Africa/Dar_es_Salaam
158006,Kibaya,-5.3,36.56667,TZ,5028,Africa/Dar_es_Salaam
158016,Kibara,-2.15,33.45,TZ,17211,Africa/Dar_es_Salaam
158024,Kibakwe,-6.71667,36.36667,TZ,19526,Africa/Dar_es_Salaam
158027,Kibaha,-6.76667,38.91667,TZ,23651,Africa/Dar_es_Salaam
158151,Katumba,-9.23333,33.61667,TZ,108558,Africa/Dar_es_Salaam
158160,Katoro,-3.02028,31.89583,TZ,49691,Africa/Dar_es_Salaam
158161,Katoro,-1.39972,31.50028,TZ,11925,Africa/Dar_es_Salaam
158178,Katesh,-4.52483,35.3849,TZ,4943,Africa/Dar_es_Salaam
158179,Katerero,-1.4,31.73333,TZ,18430,Africa/Dar_es_Salaam
158214,Kasulu,-4.57667,30.1025,TZ,37349,Africa/Dar_es_Salaam
158289,Kasamwa,-2.85,32.43333,TZ,27681,Africa/Dar_es_Salaam
158321,Karema,-6.82052,30.43887,TZ,12630,Africa/Dar_es_Salaam
158324,Kiratu,-3.33333,35.66667,TZ,19803,Africa/Dar_es_Salaam
158422,Kandete,-9.15,33.8,TZ,10318,Africa/Dar_es_Salaam
158492,Kamachumu,-1.61861,31.62,TZ,15701,Africa/Dar_es_Salaam
158514,Kaliua,-5.06056,31.79361,TZ,12362,Africa/Dar_es_Salaam
158563,Kakonko,-3.28278,30.96417,TZ,24688,Africa/Dar_es_Salaam
158597,Kahama,-3.83333,32.6,TZ,36014,Africa/Dar_es_Salaam
158684,Kabanga,-2.63861,30.46778,TZ,19421,Africa/Dar_es_Salaam
158825,Izazi,-7.2,35.73333,TZ,18010,Africa/Dar_es_Salaam
158876,Itumba,-9.4,33.18333,TZ,13438,Africa/Dar_es_Salaam
158904,Itigi,-5.7,34.48333,TZ,19711,Africa/Dar_es_Salaam
158974,Issenye,-2,34.33333,TZ,7778,Africa/Dar_es_Salaam
159045,Isaka,-3.9,32.93333,TZ,21094,Africa/Dar_es_Salaam
159071,Iringa,-7.76667,35.7,TZ,111820,Africa/Dar_es_Salaam
159107,Ipinda,-9.48333,33.9,TZ,17775,Africa/Dar_es_Salaam
159134,Inyonga,-6.71667,32.06667,TZ,11790,Africa/Dar_es_Salaam
159179,Ilula,-7.6766,36.03658,TZ,29193,Africa/Dar_es_Salaam
159186,Ilongero,-4.66667,34.86667,TZ,17342,Africa/Dar_es_Salaam
159218,Ilembula,-8.9,34.58333,TZ,18870,Africa/Dar_es_Salaam
159219,Ilembo,-9.25,33.38333,TZ,2607,Africa/Dar_es_Salaam
159242,Ikwiriri,-7.95618,38.97164,TZ,13071,Africa/Dar_es_Salaam
159267,Ikungi,-5.13333,34.76667,TZ,19692,Africa/Dar_es_Salaam
159380,Igurusi,-8.85,33.85,TZ,24895,Africa/Dar_es_Salaam
159382,Igurubi,-4,33.7,TZ,10083,Africa/Dar_es_Salaam
159386,Igunga,-4.28333,33.88333,TZ,35644,Africa/Dar_es_Salaam
159398,Igugunu,-4.56667,34.63333,TZ,22810,Africa/Dar_es_Salaam
159492,Ifakara,-8.13333,36.68333,TZ,49528,Africa/Dar_es_Salaam
159647,Hedaru,-4.5,37.9,TZ,20231,Africa/Dar_es_Salaam
159908,Geita,-2.86667,32.16667,TZ,40000,Africa/Dar_es_Salaam
159909,Geiro,-6.15,36.86667,TZ,37909,Africa/Dar_es_Salaam
159936,Gamba,-5.9,39.3,TZ,3644,Africa/Dar_es_Salaam
159951,Galappo,-4.26667,35.85,TZ,18528,Africa/Dar_es_Salaam
160073,Endasak,-4.41667,35.51667,TZ,14576,Africa/Dar_es_Salaam
160141,Dunda,-8.11667,34.25,TZ,14080,Africa/Dar_es_Salaam
160172,Dongobesh,-4.06667,35.38333,TZ,18864,Africa/Dar_es_Salaam
160196,Dodoma,-6.17221,35.73947,TZ,180541,Africa/Dar_es_Salaam
160263,Dar es Salaam,-6.82349,39.26951,TZ,2698652,Africa/Dar_es_Salaam
160266,Dareda,-4.21667,35.55,TZ,19876,Africa/Dar_es_Salaam
160464,Chimala,-8.85637,34.02393,TZ,24817,Africa/Dar_es_Salaam
160552,Chato,-2.63778,31.76694,TZ,27776,Africa/Dar_es_Salaam
160592,Chanika,-5.41667,38.01667,TZ,30905,Africa/Dar_es_Salaam
160660,Chalinze,-6.63784,38.35396,TZ,34335,Africa/Dar_es_Salaam
160670,Chala,-7.58333,31.26667,TZ,22624,Africa/Dar_es_Salaam
160677,Chake Chake,-5.24586,39.76659,TZ,21686,Africa/Dar_es_Salaam
160798,Butiama,-1.76667,33.96667,TZ,16376,Africa/Dar_es_Salaam
160833,Buseresere,-3.02361,31.87472,TZ,52870,Africa/Dar_es_Salaam
160877,Bungu,-7.63369,39.05818,TZ,27873,Africa/Dar_es_Salaam
160892,Bunda,-2.05,33.86667,TZ,50944,Africa/Dar_es_Salaam
160950,Bukonyo,-1.95,32.93333,TZ,4051,Africa/Dar_es_Salaam
160961,Bukoba,-1.33167,31.81222,TZ,70628,Africa/Dar_es_Salaam
160971,Bukene,-4.23333,32.88333,TZ,7444,Africa/Dar_es_Salaam
161022,Bugene,-1.59111,31.14028,TZ,10609,Africa/Dar_es_Salaam
161023,Bugarama,-2.87056,30.52806,TZ,32494,Africa/Dar_es_Salaam
161154,Biharamulo,-2.63194,31.30889,TZ,34038,Africa/Dar_es_Salaam
161197,Basotu,-4.36667,35.08333,TZ,20937,Africa/Dar_es_Salaam
161204,Bashanet,-4.23333,35.41667,TZ,19087,Africa/Dar_es_Salaam
161218,Bariadi,-2.8,33.98333,TZ,33865,Africa/Dar_es_Salaam
161290,Bagamoyo,-6.44222,38.90422,TZ,82426,Africa/Dar_es_Salaam
161312,Babati,-4.21667,35.75,TZ,34291,Africa/Dar_es_Salaam
161325,Arusha,-3.36667,36.68333,TZ,341136,Africa/Dar_es_Salaam
175499,Nchelenge,-9.34506,28.73396,ZM,23693,Africa/Lusaka
175555,Nakonde,-9.34213,32.745,ZM,10652,Africa/Lusaka
175961,Mpulungu,-8.76234,31.11405,ZM,8547,Africa/Lusaka
175967,Mporokoso,-9.37273,30.12501,ZM,3401,Africa/Lusaka
176146,Mbala,-8.84024,31.36587,ZM,20570,Africa/Lusaka
176555,Kawambwa,-9.7915,29.07913,ZM,20589,Africa/Lusaka
176758,Kaputa,-8.46887,29.66193,ZM,2683,Africa/Lusaka
178040,Yala,0.09906,34.53757,KE,2715,Africa/Nairobi
178073,Wundanyi,-3.40193,38.36402,KE,12501,Africa/Nairobi
178077,Wote,-1.78079,37.62882,KE,6133,Africa/Nairobi
178093,Witu,-2.38885,40.43821,KE,5380,Africa/Nairobi
178202,Webuye,0.60751,34.76966,KE,22507,Africa/Nairobi
178443,Wajir,1.7471,40.05732,KE,45771,Africa/Nairobi
178522,Voi,-3.39605,38.55609,KE,45483,Africa/Nairobi
179330,Thika,-1.03326,37.06933,KE,200000,Africa/Nairobi
179525,Taveta,-3.39879,37.68336,KE,13377,Africa/Nairobi
179634,Takaungu,-3.68367,39.85661,KE,10760,Africa/Nairobi
179888,Sotik,-0.68333,35.11871,KE,2600,Africa/Nairobi
180389,Shimoni,-4.64756,39.38175,KE,2374,Africa/Nairobi
180646,Sawa Sawa,-4.47166,39.48463,KE,12975,Africa/Nairobi
180868,Sagana,-0.66667,37.2,KE,3297,Africa/Nairobi
180992,Rumuruti,0.26699,36.53886,KE,4501,Africa/Nairobi
181135,Rongai,-0.17333,35.86382,KE,30471,Africa/Nairobi
181501,Pumwani,-1.28333,36.85,KE,29616,Africa/Nairobi
181702,Oyugis,-0.50898,34.73583,KE,10116,Africa/Nairobi
181735,Othaya,-0.56515,36.96091,KE,4468,Africa/Nairobi
182498,Ogembo,-0.79839,34.72531,KE,1842,Africa/Nairobi
182701,Nyeri,-0.42013,36.94759,KE,51084,Africa/Nairobi
183027,Nyahururu,0.0421,36.36734,KE,31978,Africa/Nairobi
183595,Ngong,-1.36175,36.6566,KE,9519,Africa/Nairobi
184367,Naro Moru,-0.16756,37.02129,KE,9018,Africa/Nairobi
184379,Narok,-1.07829,35.86012,KE,36061,Africa/Nairobi
184433,Nanyuki,0.01667,37.07283,KE,36142,Africa/Nairobi
184471,Nandi Hills,0.1066,35.18378,KE,4257,Africa/Nairobi
184546,Nambale,0.44594,34.25194,KE,1154,Africa/Nairobi
184570,Namanga,-2.54327,36.79053,KE,13193,Africa/Nairobi
184622,Nakuru,-0.28333,36.06667,KE,259903,Africa/Nairobi
184707,Naivasha,-0.71667,36.43591,KE,38366,Africa/Nairobi
184745,Nairobi,-1.28333,36.81667,KE,2750547,Africa/Nairobi
184921,Mwingi,-0.93435,38.06005,KE,11219,Africa/Nairobi
185579,Murang'a,-0.71667,37.15,KE,11987,Africa/Nairobi
185702,Mumias,0.33511,34.4864,KE,45485,Africa/Nairobi
185939,Muhoroni,-0.15406,35.19878,KE,15217,Africa/Nairobi
186101,Mtito Andei,-2.69009,38.16631,KE,4763,Africa/Nairobi
186180,Moyale,3.5216,39.05472,KE,34314,Africa/Nairobi
186301,Mombasa,-4.05466,39.66359,KE,799668,Africa/Nairobi
186315,Molo,-0.2479,35.73743,KE,27896,Africa/Nairobi
186731,Migori,-1.06343,34.47313,KE,35240,Africa/Nairobi
186827,Meru,0.04626,37.65587,KE,47226,Africa/Nairobi
187110,Mbale,-3.4,38.38333,KE,60000,Africa/Nairobi
187231,Maua,0.23206,37.94052,KE,10804,Africa/Nairobi
187585,Marsabit,2.32839,37.98986,KE,15361,Africa/Nairobi
187661,Mariakani,-3.86332,39.47362,KE,12786,Africa/Nairobi
187725,Maralal,1.09679,36.69799,KE,20841,Africa/Nairobi
187733,Maragua,-0.78333,37.13333,KE,4661,Africa/Nairobi
187896,Mandera,3.93726,41.85688,KE,36076,Africa/Nairobi
187968,Malindi,-3.21799,40.11692,KE,118265,Africa/Nairobi
187977,Malikisi,0.67694,34.42167,KE,4319,Africa/Nairobi
188025,Malaba,0.63457,34.2756,KE,8383,Africa/Nairobi
188080,Makueni,-1.80409,37.62034,KE,20681,Africa/Nairobi
188408,Magadi,-1.90122,36.287,KE,14529,Africa/Nairobi
188492,Machakos,-1.51667,37.26667,KE,31971,Africa/Nairobi
188617,Kipkelion,-0.19675,35.46847,KE,2952,Africa/Nairobi
188657,Lugulu,0.39361,34.30528,KE,40894,Africa/Nairobi
188714,Luanda,0.29668,34.06459,KE,10053,Africa/Nairobi
188981,Londiani,-0.16496,35.59087,KE,4758,Africa/Nairobi
189280,Lodwar,3.11911,35.59727,KE,20219,Africa/Nairobi
189367,Litein,-0.58226,35.19029,KE,3129,Africa/Nairobi
189386,Limuru,-1.1,36.65,KE,6317,Africa/Nairobi
189741,Lamu,-2.27169,40.90201,KE,24525,Africa/Nairobi
190108,Kwale,-4.17375,39.45206,KE,4883,Africa/Nairobi
190544,Konza,-1.7426,37.12941,KE,2004,Africa/Nairobi
191038,Kitui,-1.36696,38.01055,KE,15954,Africa/Nairobi
191220,Kitale,1.01572,35.00622,KE,75123,Africa/Nairobi
191245,Kisumu,-0.10221,34.76171,KE,216479,Africa/Nairobi
191299,Kisii,-0.68174,34.76666,KE,28547,Africa/Nairobi
191675,Kipini,-2.52565,40.5262,KE,4114,Africa/Nairobi
191833,Kinango,-4.13723,39.31528,KE,8070,Africa/Nairobi
191837,Kihancha,-1.18376,34.62616,KE,13162,Africa/Nairobi
192067,Kilifi,-3.63045,39.84992,KE,46118,Africa/Nairobi
192126,Kikuyu,-1.24576,36.66328,KE,3953,Africa/Nairobi
192202,Kijabe,-0.93304,36.57581,KE,4679,Africa/Nairobi
192710,Kiambu,-1.16667,36.83333,KE,21234,Africa/Nairobi
192859,Keruguya,-0.49887,37.28031,KE,15287,Africa/Nairobi
192869,Keroka,-0.77584,34.94531,KE,4143,Africa/Nairobi
192900,Kericho,-0.36774,35.28314,KE,35748,Africa/Nairobi
193627,Karuri,-0.7,37.18333,KE,21476,Africa/Nairobi
193985,Kapsowar,0.98119,35.56145,KE,9152,Africa/Nairobi
194038,Kapsabet,0.20387,35.105,KE,3758,Africa/Nairobi
194160,Kapenguria,1.23333,35.11667,KE,56000,Africa/Nairobi
194406,Kangundo,-1.29792,37.34705,KE,10094,Africa/Nairobi
194451,Kangema,-0.68333,36.96667,KE,4319,Africa/Nairobi
195272,Kakamega,0.28422,34.75229,KE,63426,Africa/Nairobi
195298,Kajiado,-1.85238,36.77683,KE,11198,Africa/Nairobi
195821,Kabarnet,0.49194,35.74303,KE,24661,Africa/Nairobi
196231,Isiolo,0.35462,37.58218,KE,33207,Africa/Nairobi
196742,Homa Bay,-0.52731,34.45714,KE,40319,Africa/Nairobi
196752,Hola,-1.48256,40.03341,KE,6932,Africa/Nairobi
197514,Gazi,-4.42402,39.50588,KE,5222,Africa/Nairobi
197745,Garissa,-0.45275,39.64601,KE,67861,Africa/Nairobi
198476,Embu,-0.53112,37.45061,KE,34922,Africa/Nairobi
198629,Eldoret,0.52036,35.26993,KE,218446,Africa/Nairobi
198636,Eldama Ravine,0.05158,35.73078,KE,12524,Africa/Nairobi
199284,Chuka,-0.33316,37.64587,KE,9347,Africa/Nairobi
199604,Chepareria,1.30774,35.2039,KE,1073,Africa/Nairobi
199971,Butere,0.20636,34.49348,KE,11205,Africa/Nairobi
199989,Busia,0.46005,34.11169,KE,51981,Africa/Nairobi
200061,Port Bunyala,0.09388,33.97559,KE,6793,Africa/Nairobi
200067,Bungoma,0.5635,34.56055,KE,55962,Africa/Nairobi
200304,Bondo,0.23861,34.26944,KE,8683,Africa/Nairobi
200308,Bomet,-0.78129,35.34156,KE,5270,Africa/Nairobi
200575,Baringo,0.46667,35.96667,KE,7656,Africa/Nairobi
200787,Athi River,-1.4563,36.97826,KE,24530,Africa/Nairobi
201229,Ahero,-0.17462,34.9163,KE,8788,Africa/Nairobi
201463,Rwamagana,-1.9487,30.4347,RW,47203,Africa/Kigali
201521,Musanze,-1.49984,29.63497,RW,86685,Africa/Kigali
201865,Nzega,-2.479,29.5564,RW,33832,Africa/Kigali
202061,Kigali,-1.94995,30.05885,RW,745261,Africa/Kigali
202065,Kibuye,-2.06028,29.34778,RW,48024,Africa/Kigali
202068,Kibungo,-2.1597,30.5427,RW,46240,Africa/Kigali
202217,Gitarama,-2.07444,29.75667,RW,87613,Africa/Kigali
202326,Cyangugu,-2.4846,28.9075,RW,63883,Africa/Kigali
202905,Gisenyi,-1.70278,29.25639,RW,83623,Africa/Kigali
203104,Byumba,-1.5763,30.0675,RW,70593,Africa/Kigali
203112,Butare,-2.59667,29.73944,RW,89600,Africa/Kigali
203717,Yangambi,0.76755,24.43973,CD,35531,Africa/Lubumbashi
204283,Watsa,3.03716,29.53551,CD,24516,Africa/Lubumbashi
204318,Wamba,2.14838,27.99466,CD,17373,Africa/Lubumbashi
204405,Uvira,-3.39534,29.13779,CD,170391,Africa/Lubumbashi
204953,Tshikapa,-6.41621,20.79995,CD,267462,Africa/Lubumbashi
205970,Sake,-1.57386,29.04339,CD,17151,Africa/Lubumbashi
207570,Mwene-Ditu,-7.00906,23.45278,CD,189177,Africa/Lubumbashi
207596,Mweka,-4.85187,21.5595,CD,50675,Africa/Lubumbashi
209228,Mbuji-Mayi,-6.13603,23.58979,CD,874761,Africa/Lubumbashi
210379,Lusambo,-4.97503,23.44391,CD,41416,Africa/Lubumbashi
210939,Luebo,-5.35218,21.42192,CD,35183,Africa/Lubumbashi
211098,Lubao,-5.38771,25.74885,CD,43068,Africa/Lubumbashi
211647,Lodja,-3.52105,23.6005,CD,68244,Africa/Lubumbashi
211734,Lisala,2.15127,21.51672,CD,70087,Africa/Kinshasa
212360,Kongolo,-5.38532,27.00029,CD,31943,Africa/Lubumbashi
212730,Kisangani,0.51528,25.19099,CD,539158,Africa/Lubumbashi
212902,Kindu,-2.94373,25.92237,CD,135698,Africa/Lubumbashi
213940,Kasongo,-4.42741,26.66656,CD,55118,Africa/Lubumbashi
214481,Kananga,-5.89624,22.41659,CD,463546,Africa/Lubumbashi
214575,Kampene,-3.59678,26.66715,CD,37034,Africa/Lubumbashi
214614,Kamina,-8.73508,24.99798,CD,73557,Africa/Lubumbashi
214974,Kalemie,-5.94749,29.19471,CD,146974,Africa/Lubumbashi
215527,Kabinda,-6.13791,24.48179,CD,59004,Africa/Lubumbashi
215605,Kabare,-2.49682,28.79081,CD,37034,Africa/Lubumbashi
215668,Kabalo,-6.05255,26.9143,CD,29833,Africa/Lubumbashi
215771,Isiro,2.77391,27.61603,CD,127076,Africa/Lubumbashi
215976,Ilebo,-4.33111,20.58638,CD,107093,Africa/Lubumbashi
216281,Goma,-1.67409,29.22845,CD,144124,Africa/Lubumbashi
216404,Gbadolite,4.279,21.00284,CD,50493,Africa/Kinshasa
216449,Gandajika,-6.74504,23.95328,CD,154425,Africa/Lubumbashi
217389,Demba,-5.49573,22.26962,CD,22263,Africa/Lubumbashi
217562,Butembo,0.14164,29.29117,CD,154621,Africa/Lubumbashi
217570,Buta,2.78582,24.72997,CD,50130,Africa/Lubumbashi
217637,Businga,3.33863,20.88577,CD,28919,Africa/Kinshasa
217695,Bunia,1.55941,30.25224,CD,96764,Africa/Lubumbashi
217745,Bumba,2.18771,22.46827,CD,95520,Africa/Kinshasa
217831,Bukavu,-2.49077,28.84281,CD,225389,Africa/Lubumbashi
217834,Bukama,-9.20443,25.85475,CD,38770,Africa/Lubumbashi
218229,Bongandanga,1.50695,21.0726,CD,4105,Africa/Kinshasa
218253,Bondo,3.81461,23.68665,CD,17860,Africa/Lubumbashi
218680,Boende,-0.28163,20.88053,CD,32091,Africa/Kinshasa
219057,Beni,0.49113,29.47306,CD,89648,Africa/Lubumbashi
219414,Basoko,1.23909,23.61598,CD,43709,Africa/Lubumbashi
220448,Aketi,2.73877,23.78326,CD,35161,Africa/Lubumbashi
220782,Tadjoura,11.78528,42.88444,DJ,22193,Africa/Djibouti
221527,Obock,11.96306,43.29056,DJ,17776,Africa/Djibouti
221915,Loyada,11.46111,43.25278,DJ,1646,Africa/Djibouti
222596,Holhol,11.31028,42.92944,DJ,3519,Africa/Djibouti
223773,Dorra,12.15028,42.47624,DJ,1873,Africa/Djibouti
223817,Djibouti,11.58901,43.14503,DJ,623891,Africa/Djibouti
223890,Dikhil,11.10861,42.37389,DJ,12043,Africa/Djibouti
224152,Danan,11.18333,42.93333,DJ,40074,Africa/Djibouti
225037,`Arta,11.52222,42.84194,DJ,6025,Africa/Djibouti
225284,'Ali Sabieh,11.15583,42.7125,DJ,40074,Africa/Djibouti
225835,Yumbe,3.46506,31.24689,UG,24300,Africa/Kampala
225858,Wobulenzi,0.72833,32.51222,UG,24415,Africa/Kampala
225964,Wakiso,0.40444,32.45944,UG,20530,Africa/Kampala
226110,Tororo,0.69299,34.18085,UG,40400,Africa/Kampala
226234,Soroti,1.71464,33.61113,UG,56400,Africa/Kampala
226267,Sironko,1.23132,34.24773,UG,14000,Africa/Kampala
226361,Sembabule,-0.07722,31.45667,UG,4320,Africa/Kampala
226600,Rukungiri,-0.84111,29.94194,UG,14000,Africa/Kampala
226823,Pallisa,1.145,33.70944,UG,30745,Africa/Kampala
226853,Paidha,2.41669,30.98551,UG,28348,Africa/Kampala
226866,Pader Palwo,2.80056,33.135,UG,11152,Africa/Kampala
227528,Nyachera,-0.9,30.41667,UG,30509,Africa/Kampala
227592,Ntungamo,-0.88333,29.65,UG,16915,Africa/Kampala
227593,Ntungamo,-0.87944,30.26417,UG,15300,Africa/Kampala
227812,Njeru,0.41861,33.17306,UG,61952,Africa/Kampala
227904,Nebbi,2.47826,31.08893,UG,30354,Africa/Kampala
228227,Namasuba,0.68944,32.42139,UG,22507,Africa/Kampala
228418,Nakasongola,1.30889,32.45639,UG,6921,Africa/Kampala
228853,Mukono,0.35333,32.75528,UG,67290,Africa/Kampala
228894,Muhororo,0.93806,30.75944,UG,1567,Africa/Kampala
228971,Mubende,0.55849,31.39489,UG,18936,Africa/Kampala
229024,Mpigi,0.225,32.31361,UG,11082,Africa/Kampala
229059,Moyo,3.66088,31.72474,UG,18800,Africa/Kampala
229112,Moroto,2.53453,34.66659,UG,10300,Africa/Kampala
229139,Mityana,0.4175,32.02278,UG,41131,Africa/Kampala
229268,Mbarara,-0.60467,30.64851,UG,97500,Africa/Kampala
229278,Mbale,1.08209,34.17503,UG,76493,Africa/Kampala
229292,Mayuge,0.45972,33.48028,UG,11503,Africa/Kampala
229361,Masindi Port,1.69606,32.08608,UG,7828,Africa/Kampala
229362,Masindi,1.67444,31.715,UG,31486,Africa/Kampala
229380,Masaka,-0.33379,31.73409,UG,65373,Africa/Kampala
229599,Lyantonde,-0.40306,31.15722,UG,8039,Africa/Kampala
229746,Luwero,0.84917,32.47306,UG,28338,Africa/Kampala
229911,Lugazi,0.37722,32.91972,UG,35036,Africa/Kampala
230166,Lira,2.2499,32.89985,UG,119323,Africa/Kampala
230256,Kyotera,-0.61556,31.5175,UG,8472,Africa/Kampala
230299,Kyenjojo,0.63278,30.62139,UG,18600,Africa/Kampala
230584,Kumi,1.46083,33.93611,UG,11400,Africa/Kampala
230617,Kotido,2.98056,34.13306,UG,18800,Africa/Kampala
230893,Kitgum,3.27833,32.88667,UG,56891,Africa/Kampala
230993,Kisoro,-1.28538,29.68497,UG,12400,Africa/Kampala
231139,Kireka,0.3475,32.64917,UG,17947,Africa/Kampala
231250,Kilembe,0.19835,30.01302,UG,7914,Africa/Kampala
231426,Kigorobya,1.6162,31.3089,UG,5420,Africa/Kampala
231550,Kiboga,0.91611,31.77417,UG,14512,Africa/Kampala
231617,Kibale,0.8,31.06667,UG,5200,Africa/Kampala
231696,Kayunga,0.7025,32.88861,UG,21704,Africa/Kampala
232066,Kasese,0.18333,30.08333,UG,67269,Africa/Kampala
232235,Kapchorwa,1.40096,34.45038,UG,11300,Africa/Kampala
232287,Kanungu,-0.9575,29.78972,UG,14600,Africa/Kampala
232371,Kamwenge,0.1866,30.45393,UG,17169,Africa/Kampala
232397,Kamuli,0.94722,33.11972,UG,12764,Africa/Kampala
232422,Kampala,0.31628,32.58219,UG,1353189,Africa/Kampala
232713,Kajansi,0.20806,32.52222,UG,7530,Africa/Kampala
232834,Kagadi,0.96056,30.79667,UG,2097,Africa/Kampala
233070,Kabale,-1.24857,29.98993,UG,43500,Africa/Kampala
233114,Jinja,0.43902,33.20317,UG,93061,Africa/Kampala
233275,Iganga,0.60917,33.46861,UG,45024,Africa/Kampala
233312,Hoima,1.43314,31.35241,UG,39625,Africa/Kampala
233346,Gulu,2.77457,32.29899,UG,146858,Africa/Kampala
233476,Fort Portal,0.66174,30.2748,UG,42670,Africa/Kampala
233508,Entebbe,0.06444,32.44694,UG,62969,Africa/Kampala
233725,Byakabanda,-0.7425,31.40639,UG,7608,Africa/Kampala
233730,Bwizibwera,-0.59167,30.62861,UG,79157,Africa/Kampala
233738,Bweyogerere,0.35583,32.66722,UG,11473,Africa/Kampala
233886,Buwenge,0.64222,33.17444,UG,15130,Africa/Kampala
234077,Busia,0.46588,34.09221,UG,43200,Africa/Kampala
234092,Busembatia,0.76972,33.61306,UG,15889,Africa/Kampala
234178,Bundibugyo,0.71117,30.06469,UG,16919,Africa/Kampala
234565,Bugiri,0.57139,33.74167,UG,22500,Africa/Kampala
234578,Bugembe,0.47972,33.23444,UG,11598,Africa/Kampala
235039,Arua,3.02013,30.91105,UG,55585,Africa/Kampala
235130,Apac,1.97556,32.53861,UG,11776,Africa/Kampala
235191,Amudat,1.95,34.95,UG,1873,Africa/Kampala
235489,Adjumani,3.37786,31.7909,UG,28700,Africa/Kampala
235715,Karonga,-9.93333,33.93333,MW,34207,Africa/Blantyre
235751,Chitipa,-9.70237,33.26969,MW,8824,Africa/Blantyre
235826,Zemio,5.03144,25.13614,CF,14000,Africa/Bangui
236524,Rafai,4.95,23.91667,CF,13459,Africa/Bangui
236844,Ouango,4.31325,22.55524,CF,4365,Africa/Bangui
236901,Ouadda,8.07771,22.40075,CF,5434,Africa/Bangui
236950,Obo,5.39586,26.49211,CF,12887,Africa/Bangui
237379,Ndele,8.41091,20.64728,CF,11764,Africa/Bangui
237478,Mobaye,4.31902,21.17861,CF,19431,Africa/Bangui
238373,Kembe,4.62275,21.88645,CF,11513,Africa/Bangui
238566,Ippy,6.26793,21.22468,CF,16571,Africa/Bangui
239300,Gambo,4.64816,22.26331,CF,4971,Africa/Bangui
239899,Bria,6.54233,21.98633,CF,29027,Africa/Bangui
240210,Birao,10.28488,22.78818,CF,10178,Africa/Bangui
240498,Bangassou,4.74132,22.81838,CF,24361,Africa/Bangui
240604,Bambari,5.76795,20.67565,CF,32547,Africa/Bangui
240999,Alindao,5.02667,21.20876,CF,14234,Africa/Bangui
243590,Iriba,15.11667,22.25,TD,1100,Africa/Ndjamena
243783,Goz Beida,13.95,20.55,TD,1500,Africa/Ndjamena
243787,Goz Beida,12.22484,21.41034,TD,1000,Africa/Ndjamena
244128,Fada,17.18535,21.58114,TD,23786,Africa/Ndjamena
244878,Biltine,14.53333,20.91667,TD,11000,Africa/Ndjamena
245338,Am Timan,11.0297,20.2827,TD,28885,Africa/Ndjamena
245669,Adre,13.46667,22.2,TD,11928,Africa/Ndjamena
245785,Abeche,13.82916,20.8324,TD,74188,Africa/Ndjamena
325579,Ziway,7.93333,38.71667,ET,49416,Africa/Addis_Ababa
325780,Yirga `Alem,6.75,38.41667,ET,36292,Africa/Addis_Ababa
326036,Yabelo,4.88333,38.08333,ET,17819,Africa/Addis_Ababa
326206,Werota,11.91667,37.7,ET,26813,Africa/Addis_Ababa
326259,Were Ilu,10.58964,39.43767,ET,7636,Africa/Addis_Ababa
326308,Wenji,8.45,39.28333,ET,17120,Africa/Addis_Ababa
326321,Wendo,6.6,38.41667,ET,12945,Africa/Addis_Ababa
327162,Turmi,4.96667,36.48333,ET,1087,Africa/Addis_Ababa
327234,Tulu Bolo,8.66667,38.21667,ET,10531,Africa/Addis_Ababa
327651,Teseney,15.11,36.6575,ER,3753,Africa/Asmara
327694,Tippi,7.2,35.45,ET,24169,Africa/Addis_Ababa
328316,Sirre,8.31667,39.48333,ET,10089,Africa/Addis_Ababa
328689,Shashemene,7.2,38.6,ET,85871,Africa/Addis_Ababa
328709,Shambu,9.56667,37.1,ET,15354,Africa/Addis_Ababa
328716,Shakiso,5.75,38.91667,ET,34078,Africa/Addis_Ababa
328880,Sendafa,9.15203,39.02335,ET,7326,Africa/Addis_Ababa
329114,Sebeta,8.91667,38.61667,ET,19533,Africa/Addis_Ababa
329586,Robit,12.01667,39.63333,ET,20679,Africa/Addis_Ababa
330120,Nejo,9.5,35.5,ET,20166,Africa/Addis_Ababa
330186,Nazret,8.55,39.26667,ET,213995,Africa/Addis_Ababa
330491,Mojo,8.58679,39.12111,ET,34547,Africa/Addis_Ababa
330534,Mizan Teferi,6.99674,35.58948,ET,14002,Africa/Addis_Ababa
330546,Massawa,15.60811,39.47455,ER,23100,Africa/Asmara
330764,Metu,8.3,35.58333,ET,29648,Africa/Addis_Ababa
330811,Metahara,8.9,39.91667,ET,23403,Africa/Addis_Ababa
331038,Mendi,9.8,35.1,ET,25239,Africa/Addis_Ababa
331180,Mekele,13.49667,39.47528,ET,215546,Africa/Addis_Ababa
331259,Mega,4.05,38.3,ET,6884,Africa/Addis_Ababa
331416,Maych'ew,12.7875,39.54222,ET,27186,Africa/Addis_Ababa
331968,Lobuni,4.83333,36.1,ET,3363,Africa/Addis_Ababa
332129,Leku,6.87309,38.44425,ET,11398,Africa/Addis_Ababa
332288,Lalibela,12.03219,39.04756,ET,11152,Africa/Addis_Ababa
332746,Korem,12.50583,39.52278,ET,30633,Africa/Addis_Ababa
332817,Konso,5.25,37.48333,ET,4593,Africa/Addis_Ababa
332880,K'olito,7.31667,38.08333,ET,25614,Africa/Addis_Ababa
332938,Kofele,7.06667,38.78333,ET,9643,Africa/Addis_Ababa
333103,Kibre Mengist,5.88333,38.98333,ET,27854,Africa/Addis_Ababa
333287,Keren,15.77792,38.45107,ER,74800,Africa/Asmara
333356,Kemise,10.71668,39.86997,ET,23861,Africa/Addis_Ababa
333373,Kombolcha,11.08155,39.74339,ET,93605,Africa/Addis_Ababa
333750,Jinka,5.65,36.65,ET,32115,Africa/Addis_Ababa
333772,Jima,7.66667,36.83333,ET,128306,Africa/Addis_Ababa
333795,Jijiga,9.35,42.8,ET,56821,Africa/Addis_Ababa
334227,Inda Silase,14.10307,38.28289,ET,50078,Africa/Addis_Ababa
334529,Huruta,8.15,39.35,ET,12442,Africa/Addis_Ababa
334700,Hirna,9.21667,41.1,ET,12295,Africa/Addis_Ababa
335035,Harar,9.31387,42.11815,ET,90218,Africa/Addis_Ababa
335286,Hagere Selam,6.48333,38.51667,ET,5169,Africa/Addis_Ababa
335288,Hagere Hiywet,8.98333,37.85,ET,43920,Africa/Addis_Ababa
335733,Guder,8.96667,37.76667,ET,12569,Africa/Addis_Ababa
335943,Gore,8.15,35.53333,ET,9352,Africa/Addis_Ababa
336014,Gondar,12.6,37.46667,ET,153914,Africa/Addis_Ababa
336350,Goba,7.01667,39.98333,ET,34369,Africa/Addis_Ababa
336372,Waliso,8.53417,37.96515,ET,38394,Africa/Addis_Ababa
336454,Ginir,7.13952,40.71083,ET,16757,Africa/Addis_Ababa
336496,Gimbi,9.17031,35.83491,ET,31809,Africa/Addis_Ababa
336526,Gidole,5.65,37.36667,ET,10736,Africa/Addis_Ababa
336745,Gewane,10.16658,40.64689,ET,11279,Africa/Addis_Ababa
336931,Genet,9.06667,38.5,ET,23753,Africa/Addis_Ababa
337010,Gelemso,8.81667,40.51667,ET,16065,Africa/Addis_Ababa
337083,Gedo,9.01667,37.45,ET,7499,Africa/Addis_Ababa
337152,Gebre Guracha,9.8,38.4,ET,16583,Africa/Addis_Ababa
337405,Gambela,8.25,34.58333,ET,42366,Africa/Addis_Ababa
337712,Finote Selam,10.7,37.26667,ET,23463,Africa/Addis_Ababa
337771,Fiche,9.8,38.73333,ET,25758,Africa/Addis_Ababa
337853,Felege Neway,6.3,36.88333,ET,33429,Africa/Addis_Ababa
338345,Edd,13.93088,41.6938,ER,11259,Africa/Asmara
338554,Dubti,11.73292,41.082,ET,26370,Africa/Addis_Ababa
338726,Dodola,6.98333,39.18333,ET,23116,Africa/Addis_Ababa
338832,Dire Dawa,9.59306,41.86611,ET,252279,Africa/Addis_Ababa
338998,Dila,6.41667,38.31667,ET,47021,Africa/Addis_Ababa
339219,Dese,11.13333,39.63333,ET,136056,Africa/Addis_Ababa
339448,Dembi Dolo,8.53333,34.8,ET,26748,Africa/Addis_Ababa
339537,Dek'emhare,15.07,39.0475,ER,10959,Africa/Asmara
339551,Dejen,10.16667,38.13333,ET,11739,Africa/Addis_Ababa
339629,Deder,9.31168,41.44301,ET,8884,Africa/Addis_Ababa
339666,Bishoftu,8.75225,38.97846,ET,104215,Africa/Addis_Ababa
339671,Debre Werk',10.66667,38.16667,ET,10579,Africa/Addis_Ababa
339686,Debre Tabor,11.85,38.01667,ET,32659,Africa/Addis_Ababa
339692,Debre Sina,9.84752,39.76027,ET,9409,Africa/Addis_Ababa
339708,Debre Mark'os,10.35,37.73333,ET,59920,Africa/Addis_Ababa
339734,Debre Birhan,9.67954,39.53262,ET,57787,Africa/Addis_Ababa
339823,Debark',13.15611,37.89806,ET,24700,Africa/Addis_Ababa
340358,Dabat,12.98417,37.765,ET,11544,Africa/Addis_Ababa
341297,Butajira,8.11667,38.36667,ET,30502,Africa/Addis_Ababa
341397,Bure,10.7,37.06667,ET,22038,Africa/Addis_Ababa
341742,Bonga,7.28333,36.23333,ET,18973,Africa/Addis_Ababa
341877,Boditi,6.96667,37.86667,ET,32997,Africa/Addis_Ababa
342190,Bichena,10.45,38.2,ET,16411,Africa/Addis_Ababa
342559,Bedesa,8.9,40.78333,ET,17526,Africa/Addis_Ababa
342567,Bedele,8.456,36.35302,ET,20293,Africa/Addis_Ababa
342641,Bati,11.19152,40.01675,ET,19260,Africa/Addis_Ababa
342711,Barentu,15.10582,37.59067,ER,15891,Africa/Asmara
342856,Bako,5.78333,36.56667,ET,17872,Africa/Addis_Ababa
342884,Bahir Dar,11.59364,37.39077,ET,168899,Africa/Addis_Ababa
343134,Awash,8.98333,40.16667,ET,11415,Africa/Addis_Ababa
343137,Hawassa,7.06205,38.47635,ET,133097,Africa/Addis_Ababa
343292,Asosa,10.06667,34.53333,ET,30512,Africa/Addis_Ababa
343300,Asmara,15.33805,38.93184,ER,563930,Africa/Asmara
343386,Assab,13.00917,42.73944,ER,21300,Africa/Asmara
343402,Asbe Teferi,9.08569,40.86708,ET,30772,Africa/Addis_Ababa
343409,Asaita,11.56838,41.43869,ET,20342,Africa/Addis_Ababa
343413,Asasa,7.1,39.2,ET,23790,Africa/Addis_Ababa
343593,Areka,7.06667,37.7,ET,33150,Africa/Addis_Ababa
343663,Arba Minch',6.03333,37.55,ET,69622,Africa/Addis_Ababa
344420,Axum,14.12109,38.72337,ET,41249,Africa/Addis_Ababa
344426,Ak'ordat,15.54798,37.88291,ER,8857,Africa/Asmara
344620,Hagere Maryam,5.63418,38.23603,ET,22105,Africa/Addis_Ababa
344661,Agaro,7.85,36.65,ET,28268,Africa/Addis_Ababa
344901,Mendefera,14.88722,38.81528,ER,17781,Africa/Asmara
344923,Adis Zemen,12.11667,37.78333,ET,22522,Africa/Addis_Ababa
344976,Adis `Alem,9.03333,38.4,ET,9859,Africa/Addis_Ababa
344979,Addis Ababa,9.02497,38.74689,ET,2757729,Africa/Addis_Ababa
345046,Adi Keyh,14.84444,39.37722,ER,13061,Africa/Asmara
345149,Adigrat,14.277,39.462,ET,65000,Africa/Addis_Ababa
345353,Addiet Canna,11.26667,37.48333,ET,22946,Africa/Addis_Ababa
345704,Abomsa,9.98333,39.98333,ET,15258,Africa/Addis_Ababa
346030,Zifta,30.7142,31.24425,EG,92667,Africa/Cairo
347236,Toukh,30.35394,31.20071,EG,67599,Africa/Cairo
347497,Tanda,30.78847,31.00192,EG,404901,Africa/Cairo
347542,Tamiyah,29.47639,30.96119,EG,46866,Africa/Cairo
347591,Talkha,31.0539,31.37787,EG,157737,Africa/Cairo
347612,Tala,30.68025,30.94292,EG,51498,Africa/Cairo
347634,Tahta,26.7693,31.50214,EG,90591,Africa/Cairo
347749,Sumusta as Sultani,28.91667,30.85,EG,37260,Africa/Cairo
347796,Sohag,26.55695,31.69478,EG,209419,Africa/Cairo
347863,Siwa Oasis,29.2032,25.51965,EG,7000,Africa/Cairo
348112,Sidi Salim,31.27133,30.78617,EG,47998,Africa/Cairo
349114,Shirbin,31.19688,31.5243,EG,54676,Africa/Cairo
349156,Shibin al Qanatir,30.31269,31.32018,EG,56872,Africa/Cairo
349158,Shibin al Kawm,30.55258,31.00904,EG,186345,Africa/Cairo
349340,Sharm el-Sheikh,27.91582,34.32995,EG,12000,Africa/Cairo
349715,Samannud,30.9616,31.24069,EG,54980,Africa/Cairo
349717,Samalut,28.31214,30.71007,EG,90465,Africa/Cairo
350203,Rosetta,31.39951,30.41718,EG,64481,Africa/Cairo
350207,Ras Gharib,28.35831,33.07829,EG,32000,Africa/Cairo
350370,Quwaysina,30.56482,31.15777,EG,42708,Africa/Cairo
350376,Qutur,30.97225,30.95614,EG,23842,Africa/Cairo
350422,Kousa,25.91407,32.76362,EG,60181,Africa/Cairo
350550,Qina,26.16418,32.72671,EG,235362,Africa/Cairo
350661,Qasr al Farafirah,27.0568,27.96979,EG,5000,Africa/Cairo
350789,Qalyub,30.17922,31.2056,EG,100495,Africa/Cairo
350893,Nuwaybi`a,29.04681,34.6634,EG,5000,Africa/Cairo
351434,Naj` Hammadi,26.04949,32.24142,EG,41184,Africa/Cairo
352344,Minyat an Nasr,31.12624,31.64313,EG,56951,Africa/Cairo
352354,Minuf,30.46579,30.93164,EG,83651,Africa/Cairo
352628,Matay,28.41899,30.77924,EG,45215,Africa/Cairo
352679,Mashtul as Suq,30.36056,31.3776,EG,45798,Africa/Cairo
352733,Mersa Matruh,31.3529,27.23725,EG,62042,Africa/Cairo
352736,Marsa Alam,25.06305,34.89005,EG,10000,Africa/Cairo
352913,Manfalut,27.3104,30.97004,EG,78744,Africa/Cairo
352951,Mallawi,27.7314,30.84165,EG,142504,Africa/Cairo
353219,Madinat Sittah Uktubar,29.81667,31.05,EG,41930,Africa/Cairo
353802,Kawm Umbu,24.47669,32.94626,EG,59787,Africa/Cairo
353828,Kawm Hamadah,30.76095,30.69733,EG,36751,Africa/Cairo
354105,Kafr Saqr,30.79336,31.62575,EG,34967,Africa/Cairo
354365,Kafr az Zayyat,30.8248,30.81805,EG,73725,Africa/Cairo
354502,Kafr ash Shaykh,31.1143,30.94012,EG,143970,Africa/Cairo
354775,Kafr ad Dawwar,31.13379,30.12969,EG,267370,Africa/Cairo
354981,Juhaynah,26.67319,31.4976,EG,47821,Africa/Cairo
355026,Jirja,26.33826,31.89161,EG,128250,Africa/Cairo
355392,`Izbat al Burj,31.5084,31.84106,EG,37953,Africa/Cairo
355420,Itsa,29.2376,30.78944,EG,45269,Africa/Cairo
355449,Isna,25.29336,32.55402,EG,69335,Africa/Cairo
355628,Idku,31.3073,30.2981,EG,105599,Africa/Cairo
355635,Idfu,24.97916,32.87722,EG,133000,Africa/Cairo
355648,Ibshaway,29.35805,30.68142,EG,51173,Africa/Cairo
355795,Halwan,29.84144,31.30084,EG,230000,Africa/Cairo
355939,Hihya,30.6713,31.58801,EG,43432,Africa/Cairo
356000,Hawsh `Isa,30.9128,30.29019,EG,85352,Africa/Cairo
356806,Fuwwah,31.20365,30.54908,EG,63310,Africa/Cairo
356933,Farshut,26.05494,32.16329,EG,53851,Africa/Cairo
356945,Faraskur,31.32977,31.71507,EG,58284,Africa/Cairo
356989,Faqus,30.73006,31.80182,EG,62821,Africa/Cairo
358048,Damietta,31.41648,31.81332,EG,76839,Africa/Cairo
358095,Diyarb Najm,30.75438,31.44016,EG,51841,Africa/Cairo
358108,Disuq,31.13259,30.64784,EG,102037,Africa/Cairo
358115,Dishna,26.12467,32.47598,EG,54197,Africa/Cairo
358172,Dikirnis,31.08898,31.59478,EG,137542,Africa/Cairo
358245,Dhahab,28.50098,34.51338,EG,8000,Africa/Cairo
358269,Dayrut,27.55602,30.80764,EG,67788,Africa/Cairo
358274,Dayr Mawas,27.64176,30.84662,EG,40609,Africa/Cairo
358448,Damanhur,31.03408,30.46823,EG,227943,Africa/Cairo
358600,Bush,29.14816,31.12733,EG,86608,Africa/Cairo
358619,Port Said,31.25654,32.28411,EG,538378,Africa/Cairo
358620,Bur Safajah,26.72918,33.93651,EG,32944,Africa/Cairo
358821,Bilqas,31.21452,31.35798,EG,103596,Africa/Cairo
358840,Bilbays,30.42039,31.56223,EG,129211,Africa/Cairo
358970,Basyun,30.93976,30.81338,EG,55523,Africa/Cairo
359173,Bani Suwayf,29.07441,31.09785,EG,189624,Africa/Cairo
359212,Bani Mazar,28.5036,30.8004,EG,58153,Africa/Cairo
359280,Banha,30.45906,31.17858,EG,167029,Africa/Cairo
359493,Zagazig,30.58768,31.502,EG,285097,Africa/Cairo
359576,Awsim,30.12303,31.13571,EG,63862,Africa/Cairo
359678,El-Tor,28.24168,33.6222,EG,14972,Africa/Cairo
359710,At Tall al Kabir,30.54448,31.78525,EG,51569,Africa/Cairo
359783,Asyut,27.18096,31.18368,EG,420585,Africa/Cairo
359792,Aswan,24.09082,32.89942,EG,241261,Africa/Cairo
359796,Suez,29.97371,32.52627,EG,488125,Africa/Cairo
359900,As Saff,29.56472,31.28111,EG,38213,Africa/Cairo
359953,Ash Shuhada',30.59618,30.89875,EG,48060,Africa/Cairo
360048,Ashmun,30.29857,30.97635,EG,82507,Africa/Cairo
360464,Al Wasitah,29.33778,31.20556,EG,37453,Africa/Cairo
360502,Luxor,25.69893,32.6421,EG,422407,Africa/Cairo
360526,Al Qusiyah,27.4402,30.81841,EG,68394,Africa/Cairo
360531,Al Qusayr,26.10426,34.27793,EG,24653,Africa/Cairo
360542,Al Qurayn,30.61618,31.73514,EG,61730,Africa/Cairo
360612,Al Qanayat,30.6188,31.46099,EG,42912,Africa/Cairo
360615,Al Qanatir al Khayriyah,30.19327,31.13703,EG,56302,Africa/Cairo
360630,Cairo,30.06263,31.24967,EG,7734614,Africa/Cairo
360686,Al Minya,28.10988,30.7503,EG,227150,Africa/Cairo
360716,Al Matariyah,31.18287,32.03108,EG,99357,Africa/Cairo
360754,Al Manzilah,31.15815,31.937,EG,67486,Africa/Cairo
360761,Al Mansurah,31.03637,31.38069,EG,420195,Africa/Cairo
360773,Al Manshah,26.47686,31.8035,EG,61134,Africa/Cairo
360829,Al Mahallah al Kubra,30.97063,31.1669,EG,431052,Africa/Cairo
360923,Al Kharijah,25.45141,30.54635,EG,67700,Africa/Cairo
360928,Al Khankah,30.21035,31.36812,EG,62434,Africa/Cairo
360995,Al Jizah,30.00808,31.21093,EG,2443203,Africa/Cairo
361029,Al Jamaliyah,31.18086,31.86518,EG,68381,Africa/Cairo
361055,Ismailia,30.60427,32.27225,EG,284813,Africa/Cairo
361058,Alexandria,31.21564,29.95527,EG,3811516,Africa/Cairo
361103,Al Ibrahimiyah,30.71877,31.56299,EG,34638,Africa/Cairo
361179,Al Hawamidiyah,29.9,31.25,EG,106841,Africa/Cairo
361213,Al Hamul,31.31146,31.14766,EG,45798,Africa/Cairo
361291,Hurghada,27.25738,33.81291,EG,95622,Africa/Cairo
361320,Al Fayyum,29.30995,30.8418,EG,306393,Africa/Cairo
361329,Al Fashn,28.82431,30.89948,EG,63793,Africa/Cairo
361394,Al Bawiti,28.34919,28.86591,EG,20000,Africa/Cairo
361435,Al Balyana,26.23568,32.00347,EG,48801,Africa/Cairo
361457,Al Bajur,30.43026,31.03681,EG,36633,Africa/Cairo
361478,Al Badari,26.99257,31.41554,EG,44132,Africa/Cairo
361495,Al `Ayyat,29.61972,31.2575,EG,34796,Africa/Cairo
361546,Arish,31.13159,33.79844,EG,128855,Africa/Cairo
361612,Al `Alamayn,30.83007,28.95502,EG,7400,Africa/Cairo
361661,Akhmim,26.56217,31.74503,EG,99446,Africa/Cairo
361702,Aja,30.94162,31.29039,EG,34692,Africa/Cairo
361827,Ad Dilinjat,30.82791,30.53633,EG,40386,Africa/Cairo
362004,Abu Tij,27.04411,31.31897,EG,71257,Africa/Cairo
362041,Abu Sunbul,22.3457,31.61624,EG,5000,Africa/Cairo
362277,Abu Qurqas,27.9312,30.83841,EG,61182,Africa/Cairo
362485,Abu Kabir,30.72508,31.67148,EG,100684,Africa/Cairo
362882,Abu al Matamir,30.91018,30.17438,EG,41302,Africa/Cairo
362973,Abnub,27.2696,31.15105,EG,68749,Africa/Cairo
363417,Dongola,19.18163,30.47689,SD,13473,Africa/Khartoum
363533,Zalingei,12.90918,23.47058,SD,28687,Africa/Khartoum
363619,Yei,4.09444,30.67639,SS,40382,Africa/Juba
363656,Yambio,4.57083,28.39417,SS,40382,Africa/Juba
363885,Wau,7.70286,27.9953,SS,127384,Africa/Juba
364027,Wagar,16.1525,36.2032,SD,11950,Africa/Khartoum
364071,Wad Rawah,15.16028,33.13972,SD,10348,Africa/Khartoum
364103,Wad Medani,14.40118,33.51989,SD,332714,Africa/Khartoum
364216,Wad az Zaki,14.4619,32.2065,SD,9271,Africa/Khartoum
364367,Aweil,8.76194,27.39194,SS,38745,Africa/Juba
364706,Umm Ruwaba,12.9061,31.2158,SD,55742,Africa/Khartoum
364933,Umm Kaddadah,13.60169,26.68759,SD,10979,Africa/Khartoum
364949,Um Jar Al Gharbiyya,13.8013,32.4078,SD,9038,Africa/Khartoum
365137,Omdurman,15.64453,32.47773,SD,1200000,Africa/Khartoum
365742,Torit,4.41177,32.57046,SS,20048,Africa/Juba
365763,Tonj,7.27389,28.6775,SS,17338,Africa/Juba
366323,Tokar,18.4254,37.729,SD,22250,Africa/Khartoum
366426,Tandalti,13.01667,31.86667,SD,27275,Africa/Khartoum
366444,Tambura,5.6,27.46667,SS,9483,Africa/Juba
366487,Talodi,10.63246,30.3797,SD,13188,Africa/Khartoum
366847,Singa,13.1483,33.93117,SD,44626,Africa/Khartoum
367308,Shendi,16.6915,33.4341,SD,53568,Africa/Khartoum
367544,Sawakin,19.1059,37.3321,SD,28570,Africa/Khartoum
367644,Sinnar,13.56907,33.56718,SD,130122,Africa/Khartoum
367927,Rumbek,6.80619,29.67742,SS,32083,Africa/Juba
368246,Raja,8.4675,25.67833,SS,3700,Africa/Juba
368277,Rabak,13.18087,32.73999,SD,135281,Africa/Khartoum
370457,Maridi,4.91667,29.46944,SS,14224,Africa/Juba
370481,Marawi,18.48333,31.81667,SD,10234,Africa/Khartoum
370510,Marabba,12.35,32.18333,SD,12108,Africa/Khartoum
370737,Malakal,9.53342,31.66049,SS,160765,Africa/Juba
370838,Maiurno,13.41667,33.66667,SD,28727,Africa/Khartoum
371466,Leer,8.30306,30.14056,SS,10486,Africa/Juba
371745,Kutum,14.2,24.66667,SD,9849,Africa/Khartoum
371760,Kosti,13.1629,32.66347,SD,345068,Africa/Khartoum
371827,Kurmuk,10.55,34.28333,SD,10375,Africa/Khartoum
371870,Kuraymah,18.55,31.85,SD,19593,Africa/Khartoum
372386,Kinana,14.0361,33.1712,SD,26233,Africa/Khartoum
372753,Kassala,15.45099,36.39998,SD,401477,Africa/Khartoum
372801,Karmah an Nuzul,19.63333,30.41667,SD,3928,Africa/Khartoum
372884,Kapoeta,4.77222,33.59139,SS,7042,Africa/Juba
373141,Kadugli,11.01111,29.71833,SD,87666,Africa/Khartoum
373303,Juba,4.85165,31.58247,SS,300000,Africa/Juba
374739,Gogrial,8.53324,28.10037,SS,38572,Africa/Juba
375046,Gebeit,21.06667,36.31667,SD,11095,Africa/Khartoum
375192,Jalqani,12.4486,34.2186,SD,9472,Africa/Khartoum
375495,Pajok,3.86512,32.48212,SS,49000,Africa/Juba
376332,Doka,13.51667,35.76667,SD,19821,Africa/Khartoum
376450,Dilling,12.05,29.65,SD,37113,Africa/Khartoum
377039,Port Sudan,19.61745,37.21644,SD,489725,Africa/Khartoum
377241,Bor,6.20889,31.55861,SS,26782,Africa/Juba
377472,Bentiu,9.23333,29.83333,SS,7653,Africa/Juba
377690,Berber,18.02158,33.98299,SD,22395,Africa/Khartoum
377724,Barah,13.7,30.36667,SD,16969,Africa/Khartoum
378231,Atbara,17.70217,33.98638,SD,107930,Africa/Khartoum
378271,As Suki,13.31667,33.88333,SD,33524,Africa/Khartoum
378459,Ar Ruseris,11.8659,34.3869,SD,28862,Africa/Khartoum
378493,Ar Rahad,12.71667,30.65,SD,26273,Africa/Khartoum
378502,Aroma,15.81667,36.13333,SD,12708,Africa/Khartoum
378543,Argo,19.51667,30.41667,SD,7716,Africa/Khartoum
378699,An Nuhud,12.7,28.43333,SD,108008,Africa/Khartoum
379003,El Obeid,13.18421,30.21669,SD,393311,Africa/Khartoum
379014,Al Qitena,14.8648,32.3668,SD,18321,Africa/Khartoum
379062,Al Qadarif,14.03493,35.38344,SD,363945,Africa/Khartoum
379080,Al Masallamiyya,14.5748,33.3373,SD,9373,Africa/Khartoum
379102,Al Mijlad,11.03333,27.73333,SD,19997,Africa/Khartoum
379127,El Matama,16.7095,33.3565,SD,11366,Africa/Khartoum
379149,Al Manaqil,14.2459,32.9891,SD,128297,Africa/Khartoum
379198,Al Lagowa,11.4,29.13333,SD,11024,Africa/Khartoum
379252,Khartoum,15.55177,32.53241,SD,1974647,Africa/Khartoum
379261,Al Kiremit al `Arakiyyin,14.3476,32.9437,SD,9775,Africa/Khartoum
379272,Al Kawa,13.7463,32.4996,SD,10167,Africa/Khartoum
379303,Geneina,13.45262,22.44725,SD,162981,Africa/Khartoum
379406,Al Hilaliyya,14.9398,33.234,SD,17345,Africa/Khartoum
379416,Al Hawatah,13.41667,34.63333,SD,24513,Africa/Khartoum
379427,Al Hasaheisa,14.75264,33.29836,SD,28735,Africa/Khartoum
379535,Al Fulah,11.73292,28.35786,SD,11238,Africa/Khartoum
379555,El Fasher,13.62793,25.34936,SD,252609,Africa/Khartoum
379630,El Bauga,18.26197,33.90812,SD,19141,Africa/Khartoum
380129,Ad Douiem,14.0012,32.3116,SD,87068,Africa/Khartoum
380148,El Daein,11.46186,26.12583,SD,264734,Africa/Khartoum
380151,Ad Dindar,13.2,34.16667,SD,15144,Africa/Khartoum
380173,Ed Damer,17.59898,33.97205,SD,103941,Africa/Khartoum
380174,Ad-Damazin,11.7891,34.3592,SD,186051,Africa/Khartoum
380186,Ad Dabbah,18.05,30.95,SD,11626,Africa/Khartoum
380348,Abu Zabad,12.35,29.25,SD,15304,Africa/Khartoum
380757,Abu Jibeha,11.4562,31.2285,SD,21790,Africa/Khartoum
383388,Siaya,0.06116,34.28823,KE,15354,Africa/Nairobi
400462,Alaili Dadda`,12.42167,42.89556,DJ,1456,Africa/Djibouti
400769,Laascaanood,8.47738,47.35971,SO,60100,Africa/Mogadishu
404235,Goubetto,11.42389,43.00028,DJ,2003,Africa/Djibouti
408698,Galafi,11.71583,41.83611,DJ,1849,Africa/Djibouti
419435,Az Zarqa,31.20864,31.63528,EG,40010,Africa/Cairo
422232,Makamba,-4.1348,29.804,BI,19642,Africa/Bujumbura
423328,Bururi,-3.94877,29.62438,BI,19740,Africa/Bujumbura
423549,Rumonge,-3.9736,29.4386,BI,6074,Africa/Bujumbura
423794,Mwaro,-3.51128,29.70334,BI,4924,Africa/Bujumbura
425378,Bujumbura,-3.3822,29.3644,BI,331700,Africa/Bujumbura
425551,Muramvya,-3.2682,29.6079,BI,18041,Africa/Bujumbura
426272,Gitega,-3.4264,29.9308,BI,23167,Africa/Bujumbura
426700,Ruyigi,-3.47639,30.24861,BI,38458,Africa/Bujumbura
427701,Cankuzo,-3.2186,30.5528,BI,6585,Africa/Bujumbura
428219,Karuzi,-3.10139,30.16278,BI,10705,Africa/Bujumbura
428515,Bubanza,-3.0804,29.391,BI,12728,Africa/Bujumbura
430021,Cibitoke,-2.8869,29.1248,BI,14220,Africa/Bujumbura
430569,Ngozi,-2.9075,29.8306,BI,21506,Africa/Bujumbura
430952,Kayanza,-2.9221,29.6293,BI,19443,Africa/Bujumbura
431748,Muyinga,-2.8451,30.3414,BI,71076,Africa/Bujumbura
432456,Kirundo,-2.5845,30.0959,BI,6083,Africa/Bujumbura
433635,Rutana,-3.9279,29.992,BI,20893,Africa/Bujumbura
448227,Pader,3.05,33.21667,UG,11600,Africa/Kampala
448232,Margherita,0.41861,29.89111,UG,5109,Africa/Kampala
876123,Lumeje,-11.55,20.78333,AO,4972,Africa/Luanda
876177,Luau,-10.70727,22.22466,AO,18465,Africa/Luanda
876233,Leua,-11.65,20.45,AO,5168,Africa/Luanda
876485,Cazaji,-11.06715,20.70148,AO,4764,Africa/Luanda
877178,Katima Mulilo,-17.5,24.26667,NA,25027,Africa/Windhoek
877349,Bagani,-18.11065,21.61645,NA,2000,Africa/Windhoek
877384,Tingi,-11.3,35.03333,TZ,16315,Africa/Dar_es_Salaam
877391,Tandahimba,-10.75,39.63333,TZ,17041,Africa/Dar_es_Salaam
877401,Songea,-10.68333,35.65,TZ,126449,Africa/Dar_es_Salaam
877433,Ruangwa,-10.06667,38.93333,TZ,11095,Africa/Dar_es_Salaam
877471,Nyangao,-10.33333,39.28333,TZ,16343,Africa/Dar_es_Salaam
877532,Newala Kisimani,-10.95,39.28333,TZ,38099,Africa/Dar_es_Salaam
877581,Nanyamba,-10.68333,39.83333,TZ,19555,Africa/Dar_es_Salaam
877588,Nanhyanga,-10.8,39.55,TZ,13519,Africa/Dar_es_Salaam
877597,Nangomba,-10.9,38.5,TZ,23028,Africa/Dar_es_Salaam
877605,Nanganga,-10.38333,39.15,TZ,17468,Africa/Dar_es_Salaam
877631,Namikupa,-10.83333,39.6,TZ,11733,Africa/Dar_es_Salaam
877670,Namalenga,-10.95,39.1,TZ,11204,Africa/Dar_es_Salaam
877702,Nachingwea,-10.3725,38.76251,TZ,18058,Africa/Dar_es_Salaam
877747,Mtwara,-10.26667,40.18333,TZ,96602,Africa/Dar_es_Salaam
877784,Mtama,-10.3,39.36667,TZ,11928,Africa/Dar_es_Salaam
877925,Mingoyo,-10.10526,39.61859,TZ,10480,Africa/Dar_es_Salaam
877998,Mbinga,-10.93333,35.01667,TZ,25192,Africa/Dar_es_Salaam
878006,Mbekenyera,-10,38.98333,TZ,11794,Africa/Dar_es_Salaam
878023,Mbamba Bay,-11.28333,34.76667,TZ,8997,Africa/Dar_es_Salaam
878041,Matiri,-10.75,34.9,TZ,18830,Africa/Dar_es_Salaam
878054,Masuguru,-11.36667,38.41667,TZ,7946,Africa/Dar_es_Salaam
878058,Masasi,-10.71667,38.8,TZ,36032,Africa/Dar_es_Salaam
878073,Maposeni,-10.58333,35.4,TZ,19472,Africa/Dar_es_Salaam
878087,Manda,-10.46667,34.58333,TZ,8393,Africa/Dar_es_Salaam
878121,Mahuta,-10.86667,39.45,TZ,13548,Africa/Dar_es_Salaam
878141,Madimba,-10.4,40.33333,TZ,12507,Africa/Dar_es_Salaam
878184,Lulindi,-10.81667,39.13333,TZ,7807,Africa/Dar_es_Salaam
878195,Lukuledi,-10.56667,38.8,TZ,29699,Africa/Dar_es_Salaam
878223,Luchingu,-10.9,39.33333,TZ,25145,Africa/Dar_es_Salaam
878242,Liuli,-11.08333,34.63333,TZ,13119,Africa/Dar_es_Salaam
878281,Lindi,-9.99709,39.71649,TZ,41912,Africa/Dar_es_Salaam
878362,Kitangari,-10.65,39.33333,TZ,10956,Africa/Dar_es_Salaam
878367,Kitama,-10.71667,39.73333,TZ,16232,Africa/Dar_es_Salaam
878400,Kigonsera,-10.8,35.05,TZ,22155,Africa/Dar_es_Salaam
878455,Chiungutwa,-10.88333,38.98333,TZ,12764,Africa/Dar_es_Salaam
878549,Zvishavane,-20.32674,30.06648,ZW,35896,Africa/Harare
879431,Victoria Falls,-17.93285,25.83066,ZW,35761,Africa/Harare
881164,Shurugwi,-19.67016,30.00589,ZW,17075,Africa/Harare
881331,Shangani,-19.78333,29.36667,ZW,3835,Africa/Harare
881345,Shamva,-17.31159,31.57561,ZW,10317,Africa/Harare
882100,Rusape,-18.52785,32.12843,ZW,29292,Africa/Harare
882599,Redcliff,-19.03333,29.78333,ZW,33197,Africa/Harare
882722,Raffingora,-17.03333,30.43333,ZW,1957,Africa/Harare
882859,Plumtree,-20.48333,27.81667,ZW,2148,Africa/Harare
882955,Penhalonga,-18.89112,32.69781,ZW,7681,Africa/Harare
883183,Odzi,-18.96167,32.40557,ZW,3438,Africa/Harare
883258,Nyazura,-18.70587,32.16796,ZW,2110,Africa/Harare
883481,Nyanga,-18.21667,32.75,ZW,4852,Africa/Harare
884141,Norton,-17.88333,30.7,ZW,52054,Africa/Harare
884798,Mvurwi,-17.03333,30.85,ZW,7970,Africa/Harare
884814,Mvuma,-19.27924,30.52828,ZW,4331,Africa/Harare
884927,Mutoko,-17.39699,32.22677,ZW,9532,Africa/Harare
884979,Mutare,-18.9707,32.67086,ZW,184205,Africa/Harare
885159,Murehwa,-17.64322,31.784,ZW,8559,Africa/Harare
885800,Mount Darwin,-16.77251,31.58381,ZW,6349,Africa/Harare
886146,Mhangura,-16.89387,30.16828,ZW,6503,Africa/Harare
886384,Mazowe,-17.50404,30.97388,ZW,9966,Africa/Harare
886763,Masvingo,-20.06373,30.82766,ZW,76290,Africa/Harare
886864,Mashava,-20.03665,30.48225,ZW,12994,Africa/Harare
886990,Marondera,-18.18527,31.55193,ZW,57082,Africa/Harare
888089,Macheke,-18.13901,31.84933,ZW,3642,Africa/Harare
888225,Lupane,-18.93149,27.80696,ZW,1200,Africa/Harare
888667,Lalapanzi,-19.33225,30.17768,ZW,1390,Africa/Harare
888710,Kwekwe,-18.92809,29.81486,ZW,99149,Africa/Harare
889191,Karoi,-16.80993,29.69247,ZW,25030,Africa/Harare
889215,Kariba,-16.51667,28.8,ZW,25531,Africa/Harare
889390,Kamativi Mine,-18.31563,27.05729,ZW,1575,Africa/Harare
889453,Kadoma,-18.33328,29.91534,ZW,79174,Africa/Harare
889723,Inyati,-19.67563,28.84687,ZW,8402,Africa/Harare
889795,Insiza,-19.78333,29.2,ZW,2645,Africa/Harare
889942,Hwange,-18.36446,26.49877,ZW,33210,Africa/Harare
890242,Headlands,-18.27733,32.0515,ZW,1728,Africa/Harare
890299,Harare,-17.82772,31.05337,ZW,1542813,Africa/Harare
890422,Gweru,-19.45,29.81667,ZW,146073,Africa/Harare
890516,Gwanda,-20.93333,29,ZW,14450,Africa/Harare
890983,Gokwe,-18.20476,28.9349,ZW,18942,Africa/Harare
891099,Glendale,-17.35514,31.06718,ZW,9768,Africa/Harare
891515,Filabusi,-20.53333,29.28502,ZW,1756,Africa/Harare
891699,Esigodini,-20.28979,28.92261,ZW,2228,Africa/Harare
892156,Dorowa Mining Lease,-19.06667,31.75,ZW,1676,Africa/Harare
892440,Dete,-18.61667,26.86667,ZW,2993,Africa/Harare
892876,Concession,-17.38333,30.95,ZW,4983,Africa/Harare
893172,Chivhu,-19.02112,30.89218,ZW,10369,Africa/Harare
893397,Chirundu,-16.03333,28.85,ZW,1911,Africa/Harare
893485,Chiredzi,-21.05,31.66667,ZW,28205,Africa/Harare
893549,Chipinge,-20.18833,32.62365,ZW,18860,Africa/Harare
893697,Chinhoyi,-17.36667,30.2,ZW,61739,Africa/Harare
893813,Chimanimani,-19.8,32.86667,ZW,2752,Africa/Harare
894239,Chegutu,-18.13021,30.14074,ZW,47294,Africa/Harare
894413,Chakari,-18.06294,29.89246,ZW,6472,Africa/Harare
894460,Centenary,-16.72289,31.11462,ZW,3388,Africa/Harare
894701,Bulawayo,-20.15,28.58333,ZW,699385,Africa/Harare
895057,Binga,-17.62027,27.34139,ZW,4327,Africa/Harare
895061,Bindura,-17.30192,31.33056,ZW,37423,Africa/Harare
895269,Beitbridge,-22.21667,30,ZW,26459,Africa/Harare
895308,Beatrice,-18.25283,30.8473,ZW,1647,Africa/Harare
895417,Banket,-17.38333,30.4,ZW,9641,Africa/Harare
895953,Zambezi,-13.54323,23.10467,ZM,7074,Africa/Lusaka
897045,Solwezi,-12.1688,26.38938,ZM,4846,Africa/Lusaka
897456,Sinazongwe,-17.2614,27.46179,ZM,11528,Africa/Lusaka
898188,Siavonga,-16.53818,28.70876,ZM,18638,Africa/Lusaka
898905,Sesheke,-17.47593,24.29684,ZM,20149,Africa/Lusaka
898912,Serenje,-13.23251,30.23522,ZM,8779,Africa/Lusaka
898947,Senanga,-16.11667,23.26667,ZM,10005,Africa/Lusaka
899274,Samfya,-11.36491,29.55652,ZM,20470,Africa/Lusaka
899825,Petauke,-14.24264,31.3253,ZM,19296,Africa/Lusaka
900056,Nyimba,-14.55656,30.8149,ZM,1336,Africa/Lusaka
901344,Ndola,-12.95867,28.63659,ZM,394518,Africa/Lusaka
901766,Namwala,-15.75042,26.43839,ZM,4450,Africa/Lusaka
902344,Nakambala,-15.83244,27.77994,ZM,10425,Africa/Lusaka
902620,Mwinilunga,-11.73584,24.42926,ZM,13798,Africa/Lusaka
902721,Mwense,-10.38447,28.698,ZM,4378,Africa/Lusaka
904241,Mungwi,-10.1732,31.36942,ZM,6821,Africa/Lusaka
904422,Mumbwa,-14.98293,27.0619,ZM,19086,Africa/Lusaka
905382,Mufumbwe,-13.68333,24.8,ZM,6155,Africa/Lusaka
905395,Mufulira,-12.54982,28.24071,ZM,120500,Africa/Lusaka
905789,Mpongwe,-13.50914,28.15504,ZM,8997,Africa/Lusaka
905846,Mpika,-11.83431,31.45287,ZM,28445,Africa/Lusaka
906044,Monze,-16.28333,27.48333,ZM,30257,Africa/Lusaka
906054,Mongu,-15.24835,23.12741,ZM,52534,Africa/Lusaka
906221,Mkushi,-13.62015,29.3939,ZM,12306,Africa/Lusaka
907111,Mazabuka,-15.85601,27.748,ZM,64006,Africa/Lusaka
907770,Mansa,-11.19976,28.89431,ZM,42277,Africa/Lusaka
908718,Maamba,-17.36667,27.15,ZM,12251,Africa/Lusaka
908913,Luwingu,-10.2621,29.92712,ZM,6161,Africa/Lusaka
909137,Lusaka,-15.40669,28.28713,ZM,1267440,Africa/Lusaka
909299,Lundazi,-12.29292,33.1782,ZM,11635,Africa/Lusaka
909488,Lukulu,-14.37067,23.24196,ZM,3349,Africa/Lusaka
909863,Luanshya,-13.13667,28.41661,ZM,113365,Africa/Lusaka
909887,Luangwa,-15.61667,30.41667,ZM,3065,Africa/Lusaka
910111,Livingstone,-17.84194,25.85425,ZM,109203,Africa/Lusaka
910361,Limulunga,-15.09691,23.13757,ZM,7461,Africa/Lusaka
911148,Kitwe,-12.80243,28.21323,ZM,400914,Africa/Lusaka
912226,Kataba,-11.88333,29.78333,ZM,14000,Africa/Lusaka
912628,Kasempa,-13.45836,25.8338,ZM,5622,Africa/Lusaka
912764,Kasama,-10.21289,31.18084,ZM,91056,Africa/Lusaka
913029,Kapiri Mposhi,-13.97147,28.66985,ZM,37942,Africa/Lusaka
913323,Kaoma,-14.78333,24.8,ZM,14212,Africa/Lusaka
913613,Kansanshi,-12.09514,26.42727,ZM,40705,Africa/Lusaka
914959,Kalulushi,-12.84151,28.09479,ZM,66575,Africa/Lusaka
915285,Kalengwa,-13.46586,25.00271,ZM,7574,Africa/Lusaka
915471,Kalabo,-14.97005,22.68138,ZM,7731,Africa/Lusaka
915883,Kafue,-15.76911,28.18136,ZM,47554,Africa/Lusaka
916095,Kabwe,-14.4469,28.44644,ZM,188979,Africa/Lusaka
916246,Kabompo,-13.59268,24.20081,ZM,6592,Africa/Lusaka
916668,Isoka,-10.16062,32.63353,ZM,13122,Africa/Lusaka
917011,Gwembe,-16.49755,27.60691,ZM,2052,Africa/Lusaka
917688,Chongwe,-15.32916,28.68204,ZM,6057,Africa/Lusaka
917748,Choma,-16.80648,26.95305,ZM,46746,Africa/Lusaka
918702,Chipata,-13.63333,32.65,ZM,85963,Africa/Lusaka
918905,Chinsali,-10.54142,32.08162,ZM,14015,Africa/Lusaka
919009,Chingola,-12.52897,27.88382,ZM,148564,Africa/Lusaka
919544,Chililabombwe,-12.36475,27.82286,ZM,57328,Africa/Lusaka
920233,Chibombo,-14.65685,28.07057,ZM,4477,Africa/Lusaka
920820,Chambishi,-12.63247,28.05367,ZM,11073,Africa/Lusaka
920901,Chama,-11.21303,33.1521,ZM,4061,Africa/Lusaka
921028,Chadiza,-14.06779,32.43917,ZM,3690,Africa/Lusaka
922704,Lubumbashi,-11.66089,27.47938,CD,1373770,Africa/Lubumbashi
922741,Likasi,-10.98303,26.7384,CD,422414,Africa/Lubumbashi
922773,Kolwezi,-10.71484,25.46674,CD,418000,Africa/Lubumbashi
922806,Kipushi,-11.76097,27.25135,CD,62332,Africa/Lubumbashi
923058,Kambove,-10.87352,26.59746,CD,36702,Africa/Lubumbashi
923295,Zomba,-15.38596,35.3188,MW,80932,Africa/Blantyre
923652,Thyolo,-16.06775,35.14046,MW,5775,Africa/Blantyre
924055,Salima,-13.7804,34.4587,MW,30052,Africa/Blantyre
924102,Rumphi,-11.01863,33.85746,MW,20727,Africa/Blantyre
924206,Phalombe,-15.80635,35.65067,MW,2663,Africa/Blantyre
924491,Ntchisi,-13.52775,33.9149,MW,7918,Africa/Blantyre
924492,Ntcheu,-14.82027,34.63586,MW,10445,Africa/Blantyre
924572,Nsanje,-16.91995,35.26199,MW,21774,Africa/Blantyre
924705,Nkhotakota,-12.92744,34.29614,MW,24865,Africa/Blantyre
924732,Nkhata Bay,-11.60659,34.29073,MW,11721,Africa/Blantyre
925475,Mzuzu,-11.46556,34.02071,MW,175345,Africa/Blantyre
925498,Mzimba,-11.9,33.6,MW,19308,Africa/Blantyre
925596,Mwanza,-15.60262,34.52479,MW,11379,Africa/Blantyre
925789,Mulanje,-16.03163,35.5,MW,16483,Africa/Blantyre
926087,Mponela,-13.53194,33.74008,MW,11222,Africa/Blantyre
926308,Monkey Bay,-14.08239,34.91652,MW,11619,Africa/Blantyre
926747,Mchinji,-13.79841,32.88019,MW,18305,Africa/Blantyre
927246,Mangochi,-14.47815,35.26448,MW,40236,Africa/Blantyre
927643,Machinga,-15.16849,35.30002,MW,1418,Africa/Blantyre
927792,Luchenza,-16.00693,35.30947,MW,11939,Africa/Blantyre
927834,Liwonde,-15.06665,35.22543,MW,22469,Africa/Blantyre
927856,Livingstonia,-10.60602,34.10628,MW,5552,Africa/Blantyre
927967,Lilongwe,-13.96692,33.78725,MW,646750,Africa/Blantyre
928534,Kasungu,-13.03333,33.48333,MW,42555,Africa/Blantyre
929977,Dowa,-13.65399,33.93754,MW,5565,Africa/Blantyre
930025,Dedza,-14.3779,34.33322,MW,15608,Africa/Blantyre
930580,Chiradzulu,-15.67461,35.14071,MW,1580,Africa/Blantyre
930629,Chipoka,-13.99329,34.51566,MW,4346,Africa/Blantyre
931070,Chikwawa,-16.03352,34.80091,MW,6987,Africa/Blantyre
931755,Blantyre,-15.78499,35.00854,MW,584877,Africa/Blantyre
931865,Balaka,-14.97928,34.95575,MW,18902,Africa/Blantyre
932035,Teyateyaneng,-29.14719,27.74895,LS,5115,Africa/Maseru
932183,Quthing,-30.40001,27.70027,LS,24130,Africa/Maseru
932218,Qacha's Nek,-30.11537,28.68936,LS,25573,Africa/Maseru
932320,Nako,-29.61667,27.76667,LS,13146,Africa/Maseru
932416,Mokhotlong,-29.28939,29.06751,LS,8809,Africa/Maseru
932438,Mohale's Hoek,-30.15137,27.47691,LS,28310,Africa/Maseru
932505,Maseru,-29.31667,27.48333,LS,118355,Africa/Maseru
932521,Maputsoe,-28.8866,27.89915,LS,32117,Africa/Maseru
932614,Mafeteng,-29.82299,27.23744,LS,57059,Africa/Maseru
932698,Leribe,-28.87185,28.04501,LS,47675,Africa/Maseru
932886,Butha-Buthe,-28.76659,28.24937,LS,16330,Africa/Maseru
932960,Werda,-25.26667,23.28333,BW,2149,Africa/Gaborone
932987,Tshabong,-26.05,22.45,BW,6591,Africa/Gaborone
932993,Tsau,-20.15,22.45,BW,1409,Africa/Gaborone
933000,Tonota,-21.44236,27.46153,BW,17759,Africa/Gaborone
933002,Tobane,-21.95,27.9,BW,1925,Africa/Gaborone
933018,Thamaga,-24.67014,25.53975,BW,20756,Africa/Gaborone
933030,Tamasane,-22.4184,27.40127,BW,1070,Africa/Gaborone
933040,Sua,-20.05,26.2,BW,3141,Africa/Gaborone
933077,Shakawe,-18.36536,21.84219,BW,5651,Africa/Gaborone
933088,Serowe,-22.38754,26.71077,BW,47419,Africa/Gaborone
933099,Selebi-Phikwe,-21.97895,27.84296,BW,53727,Africa/Gaborone
933102,Sekoma,-24.4,23.88333,BW,1083,Africa/Gaborone
933109,Sehithwa,-20.46667,22.71667,BW,1614,Africa/Gaborone
933112,Sefophe,-22.18333,27.96667,BW,4114,Africa/Gaborone
933117,Sebina,-20.86667,27.25,BW,3030,Africa/Gaborone
933137,Ratholo,-22.72454,27.57199,BW,2377,Africa/Gaborone
933141,Ramotswa,-24.87158,25.86989,BW,21450,Africa/Gaborone
933148,Ramokgonami,-22.8645,27.42391,BW,3681,Africa/Gaborone
933151,Rakops,-21.02257,24.36052,BW,5222,Africa/Gaborone
933162,Pilikwe,-22.79904,27.19376,BW,1375,Africa/Gaborone
933164,Pilane,-24.45,26.13333,BW,1277,Africa/Gaborone
933178,Pandamatenga,-18.52779,25.62698,BW,1685,Africa/Gaborone
933182,Palapye,-22.54605,27.12507,BW,30650,Africa/Gaborone
933184,Otse,-25.01667,25.73333,BW,6275,Africa/Gaborone
933186,Orapa,-21.3115,25.37642,BW,9189,Africa/Gaborone
933211,Nokaneng,-19.66667,22.26667,BW,1763,Africa/Gaborone
933238,Nata,-20.21667,26.18333,BW,4794,Africa/Gaborone
933271,Mosopa,-24.7718,25.42156,BW,19561,Africa/Gaborone
933277,Mosetse,-20.75,26.65,BW,1780,Africa/Gaborone
933288,Mopipi,-21.18333,24.88333,BW,3301,Africa/Gaborone
933290,Mookane,-23.68805,26.65948,BW,2397,Africa/Gaborone
933292,Maunatlala,-22.59701,27.63006,BW,3361,Africa/Gaborone
933305,Molepolole,-24.40659,25.49508,BW,63248,Africa/Gaborone
933313,Makobeng,-22.99637,27.66766,BW,1822,Africa/Gaborone
933329,Moijabana,-22.43333,26.41667,BW,2768,Africa/Gaborone
933331,Mogoditshane,-24.62694,25.86556,BW,43394,Africa/Gaborone
933332,Mogapinyana,-22.36667,27.6,BW,1515,Africa/Gaborone
933333,Mogapi,-22.32301,27.83492,BW,1917,Africa/Gaborone
933340,Mochudi,-24.41667,26.15,BW,36962,Africa/Gaborone
933347,Mmathubudukwane,-24.6,26.43333,BW,2221,Africa/Gaborone
933366,Maun,-19.98333,23.41667,BW,49945,Africa/Gaborone
933377,Mathakola,-22.72125,27.31057,BW,1159,Africa/Gaborone
933383,Mathathane,-22.26875,28.74946,BW,1987,Africa/Gaborone
933387,Mathambgwane,-20.99075,27.33158,BW,4675,Africa/Gaborone
933390,Masunga,-20.62455,27.44875,BW,3639,Africa/Gaborone
933416,Manyana,-23.4,21.71667,BW,3338,Africa/Gaborone
933437,Makwata,-23.28333,27.3,BW,1660,Africa/Gaborone
933446,Makoba,-23.48333,27.11667,BW,1006,Africa/Gaborone
933456,Makaleng,-20.9,27.28333,BW,1166,Africa/Gaborone
933471,Mahalapye,-23.10407,26.81421,BW,44471,Africa/Gaborone
933474,Magothla,-23.56667,27,BW,1174,Africa/Gaborone
933488,Machaneng,-23.18621,27.48856,BW,2139,Africa/Gaborone
933491,Mabuli,-25.78333,24.6,BW,1665,Africa/Gaborone
933498,Maapi,-22.75785,27.35001,BW,1275,Africa/Gaborone
933510,Lokwabe,-24.16667,21.83333,BW,1473,Africa/Gaborone
933521,Lobatse,-25.22435,25.67728,BW,30883,Africa/Gaborone
933534,Letlhakeng,-24.09442,25.02977,BW,6781,Africa/Gaborone
933535,Letlhakane,-21.41494,25.59263,BW,18136,Africa/Gaborone
933541,Lenchwe Le Tau,-24.38333,25.85,BW,4992,Africa/Gaborone
933548,Lehututu,-23.96667,21.86667,BW,1942,Africa/Gaborone
933555,Letsheng,-22.66384,27.2239,BW,2696,Africa/Gaborone
933573,Kurametsi,-23.4,27.06667,BW,1397,Africa/Gaborone
933596,Kopong,-24.48333,25.88333,BW,6895,Africa/Gaborone
933633,Khudumelapye,-23.88333,24.75,BW,2035,Africa/Gaborone
933649,Khakhea,-24.68954,23.49403,BW,2133,Africa/Gaborone
933677,Kasane,-17.81667,25.15,BW,9250,Africa/Gaborone
933685,Kanye,-24.96675,25.33273,BW,44716,Africa/Gaborone
933692,Kang,-23.67518,22.78762,BW,4229,Africa/Gaborone
933696,Kalamare,-22.93369,26.57032,BW,2339,Africa/Gaborone
933719,Janeng,-25.41667,25.55,BW,16853,Africa/Gaborone
933726,Hukuntsi,-23.9988,21.77962,BW,4403,Africa/Gaborone
933734,Gweta,-20.18333,25.23333,BW,4689,Africa/Gaborone
933753,Gobojango,-21.8327,28.72882,BW,1756,Africa/Gaborone
933759,Ghanzi,-21.69785,21.64581,BW,9934,Africa/Gaborone
933773,Gaborone,-24.65451,25.90859,BW,208411,Africa/Gaborone
933777,Gabane,-24.66667,25.78222,BW,12884,Africa/Gaborone
933778,Francistown,-21.16995,27.50787,BW,89979,Africa/Gaborone
933787,Dutlwe,-23.98333,23.9,BW,1126,Africa/Gaborone
933790,Dukwe,-20.58333,26.41667,BW,2037,Africa/Gaborone
933815,Dekar,-21.53333,21.93333,BW,1043,Africa/Gaborone
933862,Botlhapatlou,-24.02591,25.48976,BW,1013,Africa/Gaborone
933881,Bokaa,-24.45,26.01667,BW,4131,Africa/Gaborone
934840,Tshaneni,-25.98333,31.71667,SZ,1899,Africa/Mbabane
934851,Siteki,-26.45,31.95,SZ,6152,Africa/Mbabane
934862,Sidvokodvo,-26.6282,31.42021,SZ,1746,Africa/Mbabane
934881,Piggs Peak,-25.96667,31.25,SZ,5750,Africa/Mbabane
934900,Nsoko,-27.03333,31.95,SZ,1175,Africa/Mbabane
934913,Nhlangano,-27.11667,31.2,SZ,9016,Africa/Mbabane
934966,Mhlume,-26.03333,31.85,SZ,8652,Africa/Mbabane
934971,Mhlambanyatsi,-26.45,31.01667,SZ,2886,Africa/Mbabane
934985,Mbabane,-26.31667,31.13333,SZ,76218,Africa/Mbabane
934995,Manzini,-26.49884,31.38004,SZ,110537,Africa/Mbabane
935005,Malkerns,-26.56667,31.18333,SZ,9724,Africa/Mbabane
935048,Lobamba,-26.46667,31.2,SZ,4557,Africa/Mbabane
935051,Lavumisa,-27.31005,31.89198,SZ,2000,Africa/Mbabane
935054,Kwaluseni,-26.48333,31.33333,SZ,3395,Africa/Mbabane
935055,Kubuta,-26.88333,31.48333,SZ,2038,Africa/Mbabane
935076,Hluti,-27.21667,31.61667,SZ,6763,Africa/Mbabane
935081,Hlatikulu,-26.96667,31.31667,SZ,2748,Africa/Mbabane
935106,Darkton,-26.23333,31.03333,SZ,1281,Africa/Mbabane
935111,Bulembu,-25.96667,31.13333,SZ,2260,Africa/Mbabane
935113,Big Bend,-26.81667,31.93333,SZ,10342,Africa/Mbabane
935114,Bhunya,-26.55,31.01667,SZ,3046,Africa/Mbabane
936374,Roodepoort,-26.1625,27.8725,ZA,225000,Africa/Johannesburg
936953,Zoar,-33.4956,21.44373,ZA,4659,Africa/Johannesburg
937136,Zeerust,-25.53695,26.07512,ZA,17708,Africa/Johannesburg
937246,Zastron,-30.30225,27.08395,ZA,12449,Africa/Johannesburg
938457,Wolmaransstad,-27.1974,25.98311,ZA,49366,Africa/Johannesburg
938694,White River,-25.33177,31.01166,ZA,15954,Africa/Johannesburg
939270,Witbank,-25.87133,29.23323,ZA,262491,Africa/Johannesburg
939608,Winburg,-28.51805,27.00933,ZA,11072,Africa/Johannesburg
939676,Willowmore,-33.29265,23.48954,ZA,7100,Africa/Johannesburg
940186,Whittlesea,-32.17588,26.82437,ZA,12080,Africa/Johannesburg
940316,Westonaria,-26.31905,27.6486,ZA,156831,Africa/Johannesburg
940424,Wesselsbron,-27.8549,26.36583,ZA,42552,Africa/Johannesburg
940909,Welkom,-27.97742,26.73506,ZA,431944,Africa/Johannesburg
941931,Warrenton,-28.11396,24.84753,ZA,17946,Africa/Johannesburg
941966,Warmbaths,-24.88333,28.28333,ZA,90210,Africa/Johannesburg
942206,Arniston,-34.66739,20.23086,ZA,1267,Africa/Johannesburg
942470,Vryheid,-27.76952,30.79165,ZA,150012,Africa/Johannesburg
942511,Vryburg,-26.95659,24.7284,ZA,49588,Africa/Johannesburg
942683,Vredefort,-27.00805,27.3646,ZA,10649,Africa/Johannesburg
942701,Vrede,-27.42573,29.16585,ZA,14622,Africa/Johannesburg
943032,Volksrust,-27.36541,29.88175,ZA,43378,Africa/Johannesburg
943882,Virginia,-28.10391,26.86593,ZA,122502,Africa/Johannesburg
943937,Villiers,-27.03026,28.60061,ZA,11240,Africa/Johannesburg
943960,Viljoenskroon,-27.20841,26.94855,ZA,54955,Africa/Johannesburg
944385,Vereeniging,-26.67313,27.92615,ZA,474681,Africa/Johannesburg
944540,Ventersburg,-28.08561,27.13814,ZA,10698,Africa/Johannesburg
944986,Vanderbijlpark,-26.71171,27.83795,ZA,246754,Africa/Johannesburg
945813,Utrecht,-27.65862,30.32166,ZA,3575,Africa/Johannesburg
945945,Upington,-28.44776,21.25612,ZA,71373,Africa/Johannesburg
946058,Mthatha,-31.58893,28.78443,ZA,78663,Africa/Johannesburg
946128,Umkomaas,-30.20674,30.79776,ZA,20410,Africa/Johannesburg
946257,Ulundi,-28.33523,31.41617,ZA,20753,Africa/Johannesburg
946877,Uitenhage,-33.75757,25.3971,ZA,228912,Africa/Johannesburg
946973,Tzaneen,-23.83322,30.16351,ZA,16954,Africa/Johannesburg
949026,Thulamahashi,-24.72459,31.19939,ZA,11655,Africa/Johannesburg
949224,Thohoyandou,-22.94564,30.48497,ZA,44046,Africa/Johannesburg
949282,Theunissen,-28.41098,26.70107,ZA,34718,Africa/Johannesburg
949683,Thabazimbi,-24.59165,27.41155,ZA,10365,Africa/Johannesburg
949703,Thaba Nchu,-29.20932,26.83898,ZA,38616,Africa/Johannesburg
949880,Tembisa,-25.99636,28.2268,ZA,511655,Africa/Johannesburg
950709,Swellendam,-34.02262,20.44171,ZA,13674,Africa/Johannesburg
951441,Sundumbili,-29.13371,31.39752,ZA,12455,Africa/Johannesburg
951650,Stutterheim,-32.57076,27.42396,ZA,35510,Africa/Johannesburg
952192,Stilfontein,-26.84493,26.76829,ZA,93110,Africa/Johannesburg
952734,Stanger,-29.32816,31.28954,ZA,59899,Africa/Johannesburg
952747,Standerton,-26.93366,29.24152,ZA,74021,Africa/Johannesburg
952865,Springs,-26.25,28.4,ZA,186394,Africa/Johannesburg
953781,Soweto,-26.26781,27.85849,ZA,1695047,Africa/Johannesburg
954161,Somerset East,-32.72173,25.58804,ZA,16155,Africa/Johannesburg
955313,Siyabuswa,-25.11319,29.04454,ZA,26236,Africa/Johannesburg
956507,Senekal,-28.31971,27.62082,ZA,39584,Africa/Johannesburg
956767,Secunda,-26.55,29.16667,ZA,20418,Africa/Johannesburg
956878,Scottburgh,-30.28666,30.75316,ZA,23949,Africa/Johannesburg
956907,Schweizer-Reneke,-27.18871,25.32931,ZA,70214,Africa/Johannesburg
957487,Sasolburg,-26.81358,27.81695,ZA,77016,Africa/Johannesburg
958724,Rustenburg,-25.66756,27.24208,ZA,124064,Africa/Johannesburg
961152,Riversdale,-34.09345,21.25725,ZA,16176,Africa/Johannesburg
961226,Ritchie,-29.03801,24.60278,ZA,9960,Africa/Johannesburg
962330,Richmond,-29.87196,30.27235,ZA,32445,Africa/Johannesburg
962367,Richards Bay,-28.78301,32.03768,ZA,252968,Africa/Johannesburg
962847,Reitz,-27.80138,28.42726,ZA,16637,Africa/Johannesburg
963230,Randfontein,-26.1844,27.70203,ZA,133654,Africa/Johannesburg
963516,Queenstown,-31.89756,26.87533,ZA,105309,Africa/Johannesburg
963525,Queensdale,-31.87101,26.97862,ZA,20009,Africa/Johannesburg
964078,Prince Albert,-33.22476,22.02673,ZA,13136,Africa/Johannesburg
964090,Prieska,-29.66803,22.74251,ZA,11236,Africa/Johannesburg
964137,Pretoria,-25.74486,28.18783,ZA,1619438,Africa/Johannesburg
964315,Mokopane,-24.19436,29.00974,ZA,101090,Africa/Johannesburg
964349,Potchefstroom,-26.71667,27.1,ZA,123669,Africa/Johannesburg
964406,Port Shepstone,-30.74137,30.45499,ZA,52793,Africa/Johannesburg
964408,Port Saint John's,-31.62291,29.54477,ZA,5939,Africa/Johannesburg
964420,Port Elizabeth,-33.91799,25.57007,ZA,967677,Africa/Johannesburg
964432,Port Alfred,-33.58601,26.88329,ZA,17959,Africa/Johannesburg
964712,Plettenberg Bay,-34.05274,23.3716,ZA,19445,Africa/Johannesburg
965241,Piet Retief,-27.00706,30.81323,ZA,84349,Africa/Johannesburg
965289,Polokwane,-23.90449,29.46885,ZA,123749,Africa/Johannesburg
965301,Pietermaritzburg,-29.61679,30.39278,ZA,750845,Africa/Johannesburg
965401,Phuthaditjhaba,-28.52423,28.81582,ZA,84258,Africa/Johannesburg
965528,Phalaborwa,-23.94299,31.14107,ZA,109468,Africa/Johannesburg
966166,Parys,-26.9033,27.45727,ZA,71319,Africa/Johannesburg
966380,Pampierstad,-27.78324,24.68768,ZA,21800,Africa/Johannesburg
967106,Oudtshoorn,-33.60047,22.19955,ZA,61507,Africa/Johannesburg
967476,Orkney,-26.98023,26.67272,ZA,145801,Africa/Johannesburg
967580,Orange Farm,-26.48333,27.86667,ZA,10000,Africa/Johannesburg
968665,Modimolle,-24.7,28.4,ZA,20527,Africa/Johannesburg
969582,Noupoort,-31.18736,24.94991,ZA,3924,Africa/Johannesburg
970341,Nkowakowa,-23.88782,30.28708,ZA,30138,Africa/Johannesburg
970566,Nigel,-26.43138,28.47713,ZA,140644,Africa/Johannesburg
971421,Newcastle,-27.75796,29.9318,ZA,404838,Africa/Johannesburg
971534,Nelspruit,-25.47448,30.97033,ZA,110159,Africa/Johannesburg
972673,Muldersdriseloop,-26.03673,27.83798,ZA,1500,Africa/Johannesburg
973111,Mpumalanga,-29.81292,30.63646,ZA,140121,Africa/Johannesburg
973139,Mpophomeni,-29.56822,30.18618,ZA,26229,Africa/Johannesburg
973709,Mossel Bay,-34.18307,22.14605,ZA,59031,Africa/Johannesburg
974222,Mooirivier,-29.20824,29.9946,ZA,10132,Africa/Johannesburg
974670,Mondlo,-27.98299,30.71769,ZA,44922,Africa/Johannesburg
974719,Molteno,-31.39675,26.36246,ZA,10078,Africa/Johannesburg
975144,Modderfontein,-26.08909,28.16534,ZA,3000,Africa/Johannesburg
975436,Mmabatho,-25.85,25.63333,ZA,76754,Africa/Johannesburg
976358,Middelburg,-31.49285,25.00633,ZA,18164,Africa/Johannesburg
976361,Middelburg,-25.77507,29.46482,ZA,154706,Africa/Johannesburg
976885,Messina,-22.35131,30.0396,ZA,20191,Africa/Johannesburg
978677,Marquard,-28.66449,27.43048,ZA,10839,Africa/Johannesburg
978895,Margate,-30.8636,30.37052,ZA,34407,Africa/Johannesburg
979365,Mankoeng,-23.9,29.81667,ZA,12499,Africa/Johannesburg
980595,Mahikeng,-25.86522,25.64421,ZA,14000,Africa/Johannesburg
980921,Mabopane,-25.49768,28.10065,ZA,97417,Africa/Johannesburg
981158,Lydenburg,-25.09598,30.44393,ZA,21695,Africa/Johannesburg
981827,Louis Trichardt,-23.04385,29.90319,ZA,86854,Africa/Johannesburg
982899,Lichtenburg,-26.152,26.15968,ZA,65863,Africa/Johannesburg
984087,Lebowakgomo,-24.2,29.5,ZA,33308,Africa/Johannesburg
985011,Lady Frere,-31.70312,27.2329,ZA,25041,Africa/Johannesburg
985015,Ladybrand,-29.19448,27.45739,ZA,17228,Africa/Johannesburg
985020,Ladismith,-33.49331,21.26755,ZA,7127,Africa/Johannesburg
986083,Kutloanong,-27.83333,26.75,ZA,95008,Africa/Johannesburg
986134,Kuruman,-27.4524,23.43246,ZA,9093,Africa/Johannesburg
986717,Kruisfontein,-34.00333,24.73142,ZA,18991,Africa/Johannesburg
986822,Krugersdorp,-26.08577,27.77515,ZA,378821,Africa/Johannesburg
986846,Kroonstad,-27.65036,27.23488,ZA,103992,Africa/Johannesburg
987202,Kriel,-26.27391,29.2253,ZA,15055,Africa/Johannesburg
987648,Koster,-25.86301,26.89756,ZA,12126,Africa/Johannesburg
987875,Koppies,-27.24179,27.57422,ZA,11445,Africa/Johannesburg
988290,Komatipoort,-25.43321,31.95478,ZA,20508,Africa/Johannesburg
988356,Kokstad,-30.54723,29.42412,ZA,25373,Africa/Johannesburg
988698,Knysna,-34.03627,23.04713,ZA,68659,Africa/Johannesburg
989921,Klerksdorp,-26.85213,26.66672,ZA,178921,Africa/Johannesburg
990802,Kirkwood,-33.39829,25.44279,ZA,10148,Africa/Johannesburg
990930,Kimberley,-28.73226,24.76232,ZA,142089,Africa/Johannesburg
991664,Kathu,-27.69569,23.04929,ZA,9219,Africa/Johannesburg
993800,Johannesburg,-26.20227,28.04363,ZA,2026469,Africa/Johannesburg
993911,Jeffrey's Bay,-34.05045,24.90768,ZA,11698,Africa/Johannesburg
994023,Jan Kempdorp,-27.92246,24.83051,ZA,13485,Africa/Johannesburg
994939,Ilinge,-31.97676,27.04267,ZA,10899,Africa/Johannesburg
995202,Howick,-29.47795,30.23057,ZA,28725,Africa/Johannesburg
995573,Hoopstad,-27.83273,25.90833,ZA,12663,Africa/Johannesburg
996256,Hluhluwe,-28.01895,32.26762,ZA,1500,Africa/Johannesburg
996918,Hennenman,-27.97654,27.02423,ZA,22847,Africa/Johannesburg
996930,Hendrina,-26.15881,29.71528,ZA,15871,Africa/Johannesburg
997140,Heilbron,-27.28115,27.9709,ZA,55196,Africa/Johannesburg
997151,Heidelberg,-26.50476,28.35921,ZA,64199,Africa/Johannesburg
997751,Harrismith,-28.27276,29.12946,ZA,35108,Africa/Johannesburg
1000006,Greytown,-29.06415,30.59279,ZA,13912,Africa/Johannesburg
1000501,Grahamstown,-33.30422,26.53276,ZA,91548,Africa/Johannesburg
1000543,Graaff-Reinet,-32.25215,24.53075,ZA,62896,Africa/Johannesburg
1001736,Glencoe,-28.17827,30.14702,ZA,13547,Africa/Johannesburg
1001860,Giyani,-23.30246,30.71868,ZA,37024,Africa/Johannesburg
1002145,George,-33.963,22.46173,ZA,12345,Africa/Johannesburg
1002851,Ga-Rankuwa,-25.61692,27.99471,ZA,68767,Africa/Johannesburg
1003462,Ga-Kgapane,-23.64378,30.22324,ZA,13000,Africa/Johannesburg
1003763,Frankfort,-27.27888,28.49696,ZA,1900,Africa/Johannesburg
1003953,Fort Beaufort,-32.77477,26.63376,ZA,58419,Africa/Johannesburg
1004109,Fochville,-26.48862,27.49387,ZA,62416,Africa/Johannesburg
1005029,eSikhawini,-28.87097,31.89961,ZA,49265,Africa/Johannesburg
1005040,Eshowe,-28.88649,31.4699,ZA,14786,Africa/Johannesburg
1005125,Ermelo,-26.53333,29.98333,ZA,41124,Africa/Johannesburg
1005544,Empangeni,-28.76197,31.89329,ZA,28093,Africa/Johannesburg
1005646,eMbalenhle,-26.53333,29.06667,ZA,141741,Africa/Johannesburg
1005781,Elliot,-31.33333,27.85,ZA,11836,Africa/Johannesburg
1006420,Ekuvukeni,-28.46752,30.15513,ZA,14331,Africa/Johannesburg
1006984,East London,-33.01529,27.91162,ZA,478676,Africa/Johannesburg
1007311,Durban,-29.8579,31.0292,ZA,3120282,Africa/Johannesburg
1007400,Dundee,-28.16678,30.23371,ZA,84413,Africa/Johannesburg
1007514,Duiwelskloof,-23.69339,30.14002,ZA,24572,Africa/Johannesburg
1008261,Driefontein,-27.0177,30.44979,ZA,28127,Africa/Johannesburg
1008858,Dordrecht,-31.372,27.04878,ZA,9123,Africa/Johannesburg
1010728,De Rust,-33.49035,22.53523,ZA,3566,Africa/Johannesburg
1010962,Deneysville,-26.8908,28.09707,ZA,12397,Africa/Johannesburg
1011031,Delmas,-26.1466,28.68322,ZA,92046,Africa/Johannesburg
1011632,De Aar,-30.64966,24.0123,ZA,32318,Africa/Johannesburg
1011918,Danielskuil,-28.18873,23.53951,ZA,10123,Africa/Johannesburg
1012413,Cullinan,-25.67088,28.52364,ZA,25490,Africa/Johannesburg
1012600,Cradock,-32.16422,25.61918,ZA,32898,Africa/Johannesburg
1013076,Colesberg,-30.71999,25.09718,ZA,12423,Africa/Johannesburg
1013266,Clocolan,-28.91367,27.56555,ZA,12318,Africa/Johannesburg
1013550,Christiana,-27.91402,25.16111,ZA,17523,Africa/Johannesburg
1014012,Carolina,-26.06927,30.11489,ZA,2952,Africa/Johannesburg
1014034,Carnarvon,-30.96827,22.13303,ZA,5785,Africa/Johannesburg
1014073,Carletonville,-26.36094,27.39767,ZA,182304,Africa/Johannesburg
1014257,Calitzdorp,-33.52755,21.6762,ZA,4284,Africa/Johannesburg
1014489,Butterworth,-32.33083,28.14981,ZA,34353,Africa/Johannesburg
1014653,Burgersdorp,-30.99766,26.32862,ZA,12548,Africa/Johannesburg
1015504,Bronkhorstspruit,-25.81015,28.74248,ZA,27343,Africa/Johannesburg
1015621,Brits,-25.63473,27.78022,ZA,122497,Africa/Johannesburg
1015694,Breyten,-26.30176,29.98696,ZA,12550,Africa/Johannesburg
1015776,Bredasdorp,-34.53215,20.04031,ZA,14936,Africa/Johannesburg
1015969,Brandfort,-28.70008,26.45968,ZA,12091,Africa/Johannesburg
1016181,Brakpan,-26.23656,28.36938,ZA,305692,Africa/Johannesburg
1016670,Botshabelo,-29.27016,26.7052,ZA,309714,Africa/Johannesburg
1016698,Bothaville,-27.3887,26.61701,ZA,71934,Africa/Johannesburg
1017780,Boksburg,-26.21197,28.25958,ZA,445168,Africa/Johannesburg
1018673,Bloemhof,-27.64685,25.60697,ZA,17122,Africa/Johannesburg
1018725,Bloemfontein,-29.12107,26.214,ZA,463064,Africa/Johannesburg
1019330,Bhisho,-32.84721,27.44218,ZA,137287,Africa/Johannesburg
1019704,Bethlehem,-28.23078,28.30707,ZA,83654,Africa/Johannesburg
1019760,Bethal,-26.45794,29.46553,ZA,101919,Africa/Johannesburg
1020066,Berea,-29.85185,30.99337,ZA,15000,Africa/Johannesburg
1020098,Benoni,-26.18848,28.32078,ZA,605344,Africa/Johannesburg
1020340,Belfast,-25.68991,30.03504,ZA,11916,Africa/Johannesburg
1020641,Beaufort West,-32.35671,22.58295,ZA,44737,Africa/Johannesburg
1021040,Barkly West,-28.53537,24.52151,ZA,11621,Africa/Johannesburg
1021086,Barberton,-25.78842,31.05319,ZA,67927,Africa/Johannesburg
1021360,Ballitoville,-29.53897,31.21439,ZA,17218,Africa/Johannesburg
1021396,Balfour,-26.66331,28.59016,ZA,46008,Africa/Johannesburg
1023287,Allanridge,-27.75431,26.64382,ZA,31700,Africa/Johannesburg
1023309,Aliwal North,-30.69366,26.71141,ZA,44436,Africa/Johannesburg
1023332,Alice,-32.78749,26.8344,ZA,9788,Africa/Johannesburg
1023445,Albertina,-34.20544,21.58001,ZA,6372,Africa/Johannesburg
1023656,Adelaide,-32.70747,26.29564,ZA,12212,Africa/Johannesburg
1024552,Xai-Xai,-25.05194,33.64417,MZ,127366,Africa/Maputo
1024696,Dondo,-19.60944,34.74306,MZ,78648,Africa/Maputo
1024701,Macia,-25.02694,33.09889,MZ,23156,Africa/Maputo
1026014,Tete,-16.15639,33.58667,MZ,129316,Africa/Maputo
1028079,Ressano Garcia,-25.44278,31.99528,MZ,110000,Africa/Maputo
1028434,Quelimane,-17.87861,36.88833,MZ,188964,Africa/Maputo
1028918,Pemba,-12.97395,40.51775,MZ,108737,Africa/Maputo
1033356,Nampula,-15.11646,39.2666,MZ,388526,Africa/Maputo
1035025,Nacala,-14.56257,40.68538,MZ,224795,Africa/Maputo
1037125,Montepuez,-13.12556,38.99972,MZ,72279,Africa/Maputo
1037370,Mocimboa,-11.31667,40.35,MZ,27909,Africa/Maputo
1037390,Ilha de Mocambique,-15.03417,40.73583,MZ,54315,Africa/Maputo
1039536,Maxixe,-23.85972,35.34722,MZ,119868,Africa/Maputo
1039854,Matola,-25.96222,32.45889,MZ,675422,Africa/Maputo
1040652,Maputo,-25.96553,32.58322,MZ,1191613,Africa/Maputo
1040938,Manjacaze,-24.71167,33.88278,MZ,25541,Africa/Maputo
1043893,Lichinga,-13.31278,35.24056,MZ,109839,Africa/Maputo
1045114,Inhambane,-23.865,35.38333,MZ,73884,Africa/Maputo
1047660,Cuamba,-14.80306,36.53722,MZ,73268,Africa/Maputo
1048364,Chokwe,-24.53333,32.98333,MZ,63695,Africa/Maputo
1049261,Chimoio,-19.11639,33.48333,MZ,256936,Africa/Maputo
1049861,Chibuto,-24.68667,33.53056,MZ,59165,Africa/Maputo
1052373,Beira,-19.84361,34.83889,MZ,530604,Africa/Maputo
1052944,Antonio Enes,-16.2325,39.90861,MZ,74624,Africa/Maputo
1085510,Epworth,-17.89,31.1475,ZW,123250,Africa/Harare
1088155,Mutuali,-14.87056,37.00444,MZ,30523,Africa/Maputo
1105726,Ekangala,-25.69619,28.74918,ZA,37650,Africa/Johannesburg
1105776,Midrand,-25.98953,28.12843,ZA,173009,Africa/Johannesburg
1105777,Centurion,-25.85891,28.18577,ZA,233386,Africa/Johannesburg
1106203,Gaphatshwe,-24.57389,25.83417,BW,1678,Africa/Gaborone
1106206,Metsemotlhaba,-24.55139,25.80306,BW,5544,Africa/Gaborone
1106213,Mmopone,-24.56694,25.87417,BW,4927,Africa/Gaborone
1106215,Nkoyaphiri,-24.63222,25.83139,BW,1578,Africa/Gaborone
1106542,Chitungwiza,-18.01274,31.07555,ZW,340360,Africa/Harare
1106835,Thaba-Tseka,-29.52204,28.6084,LS,5423,Africa/Maseru
2208425,Zuwarah,32.9312,12.08199,LY,45000,Africa/Tripoli
2208485,Zliten,32.46739,14.56874,LY,109972,Africa/Tripoli
2208655,Zaltan,32.94701,11.86647,LY,17700,Africa/Tripoli
2208791,Yafran,32.06329,12.52859,LY,67638,Africa/Tripoli
2209055,Waddan,29.1614,16.13904,LY,27590,Africa/Tripoli
2210221,Tarhuna,32.43501,13.6332,LY,210697,Africa/Tripoli
2210247,Tripoli,32.87519,13.18746,LY,1150989,Africa/Tripoli
2210394,Tagiura,32.88167,13.35056,LY,100000,Africa/Tripoli
2210554,Sirte,31.20892,16.58866,LY,128123,Africa/Tripoli
2210560,Surman,32.75668,12.57159,LY,25235,Africa/Tripoli
2212771,Sabratah,32.79335,12.48845,LY,102038,Africa/Tripoli
2212775,Sabha,27.03766,14.42832,LY,130000,Africa/Tripoli
2214433,Nalut,31.86848,10.9812,LY,26256,Africa/Tripoli
2214603,Murzuq,25.91552,13.91839,LY,43732,Africa/Tripoli
2214827,Mizdah,31.44514,12.98013,LY,26107,Africa/Tripoli
2214846,Misratah,32.37535,15.09254,LY,386120,Africa/Tripoli
2215163,Masallatah,32.61667,14,LY,23702,Africa/Tripoli
2215210,Al Burayqah,30.40624,19.57386,LY,13780,Africa/Tripoli
2215282,Maradah,29.23333,19.21667,LY,2229,Africa/Tripoli
2216432,Giado,31.95815,12.02033,LY,6013,Africa/Tripoli
2216645,Hun,29.12684,15.94772,LY,18878,Africa/Tripoli
2216885,Zawiya,32.75222,12.72778,LY,186123,Africa/Tripoli
2217351,Ghat,24.96334,10.18003,LY,24347,Africa/Tripoli
2217362,Gharyan,32.17222,13.02028,LY,85219,Africa/Tripoli
2217440,Ghadamis,30.13366,9.50072,LY,7000,Africa/Tripoli
2218478,Brak,27.54956,14.27139,LY,39444,Africa/Tripoli
2218840,Bani Walid,31.74554,13.98354,LY,46350,Africa/Tripoli
2218963,Zintan,31.93155,12.25291,LY,33000,Africa/Tripoli
2218970,Az Zawiyah,32.7571,12.72764,LY,200000,Africa/Tripoli
2219235,Awbari,26.59206,12.78049,LY,42975,Africa/Tripoli
2219739,Al Qatrun,24.95139,14.64861,LY,4500,Africa/Tripoli
2219905,Al Khums,32.64861,14.26191,LY,201943,Africa/Tripoli
2219960,Al Jadid,27.05,14.4,LY,126386,Africa/Tripoli
2220139,Al 'Aziziyah,32.53194,13.0175,LY,4000,Africa/Tripoli
2220309,Idri,27.5,13.26667,LY,4611,Africa/Tripoli
2220849,Yoko,5.53333,12.31667,CM,5269,Africa/Douala
2220853,Yokadouma,3.51667,15.05,CM,13287,Africa/Douala
2220957,Yaounde,3.86667,11.51667,CM,1299369,Africa/Douala
2221030,Yagoua,10.34107,15.23288,CM,80235,Africa/Douala
2221046,Yabassi,4.45697,9.96822,CM,7560,Africa/Douala
2221053,Wum,6.38333,10.06667,CM,68836,Africa/Douala
2221394,Tonga,4.96667,10.7,CM,16036,Africa/Douala
2221504,Tiko,4.075,9.36005,CM,55914,Africa/Douala
2221513,Tignere,7.36667,12.65,CM,4353,Africa/Douala
2221530,Tibati,6.46504,12.62843,CM,35589,Africa/Douala
2221607,Tchollire,8.4022,14.1698,CM,23187,Africa/Douala
2222230,Sangmelima,2.93333,11.98333,CM,54251,Africa/Douala
2222366,Saa,4.36667,11.45,CM,5727,Africa/Douala
2222439,Rey Bouba,8.6724,14.1786,CM,11454,Africa/Douala
2222539,Poli,8.4756,13.24097,CM,5727,Africa/Douala
2222568,Pitoa,9.3839,13.50231,CM,11454,Africa/Douala
2222623,Penja,4.63911,9.67987,CM,28406,Africa/Douala
2223162,Ombesa,4.6,11.25,CM,1833,Africa/Douala
2223216,Okola,4.01667,11.38333,CM,5390,Africa/Douala
2223226,Okoa,3.98333,11.6,CM,3358,Africa/Douala
2223293,Obala,4.16667,11.53333,CM,30012,Africa/Douala
2223421,Ntui,4.45,11.63333,CM,6185,Africa/Douala
2223734,Nkoteng,4.51667,12.03333,CM,50334,Africa/Douala
2223763,Nkongsamba,4.9547,9.9404,CM,117063,Africa/Douala
2224212,Njinikom,6.23333,10.28333,CM,8247,Africa/Douala
2224413,Nguti,5.3299,9.4185,CM,5498,Africa/Douala
2224584,Ngoro,4.95,11.38333,CM,2305,Africa/Douala
2224641,Ngomedzap,3.25,11.2,CM,4284,Africa/Douala
2224827,Ngaoundere,7.32765,13.58472,CM,231357,Africa/Douala
2224863,Ngambe,4.23343,10.61532,CM,6414,Africa/Douala
2225263,Ndikinimeki,4.76667,10.83333,CM,8247,Africa/Douala
2225325,Ndelele,4.04065,14.92501,CM,5040,Africa/Douala
2225457,Nanga Eboko,4.68333,12.36667,CM,29909,Africa/Douala
2225703,Mvangue,2.96667,11.51667,CM,1908,Africa/Douala
2225726,Muyuka,4.2898,9.4103,CM,31384,Africa/Douala
2225728,Mutengene,4.0913,9.3144,CM,47478,Africa/Douala
2225745,Mundemba,4.9479,8.8724,CM,11912,Africa/Douala
2225940,Mouanko,3.63972,9.77694,CM,1604,Africa/Douala
2225991,Mora,11.04611,14.14011,CM,55216,Africa/Douala
2226275,Mokolo,10.74244,13.80227,CM,275239,Africa/Douala
2226441,Mme-Bafumen,6.33333,10.23333,CM,6149,Africa/Douala
2226515,Minta,4.58333,12.8,CM,4934,Africa/Douala
2226641,Mindif,10.39757,14.43626,CM,10538,Africa/Douala
2227230,Melong,5.12181,9.96143,CM,37086,Africa/Douala
2227402,Meiganga,6.51667,14.3,CM,80100,Africa/Douala
2227613,Mbouda,5.62611,10.25421,CM,111320,Africa/Douala
2227853,Mbengwi,6.01667,10,CM,9734,Africa/Douala
2227980,Mbankomo,3.78333,11.38333,CM,2387,Africa/Douala
2228005,Mbanga,4.5016,9.5671,CM,42590,Africa/Douala
2228019,Mbang,4.58333,13.33333,CM,1237,Africa/Douala
2228028,Mbandjok,4.45,11.9,CM,26947,Africa/Douala
2228079,Mbalmayo,3.51667,11.5,CM,80206,Africa/Douala
2228373,Maroua,10.59095,14.31593,CM,319941,Africa/Douala
2228499,Manjo,4.8428,9.8217,CM,37661,Africa/Douala
2228675,Mamfe,5.75132,9.3137,CM,19472,Africa/Douala
2228881,Makary,12.5717,14.46663,CM,7331,Africa/Douala
2229152,Loum,4.7182,9.7351,CM,177429,Africa/Douala
2229267,Lolodorf,3.23333,10.73333,CM,22252,Africa/Douala
2229411,Limbe,4.0242,9.2149,CM,72106,Africa/Douala
2229681,Lagdo,9.0263,13.6919,CM,24596,Africa/Douala
2229748,Kumbo,6.2,10.66667,CM,53970,Africa/Douala
2229752,Kumba,4.6363,9.4469,CM,144413,Africa/Douala
2229761,Kribi,2.93725,9.90765,CM,55224,Africa/Douala
2229780,Koza,10.86846,13.88205,CM,3665,Africa/Douala
2229798,Kousseri,12.07689,15.03063,CM,435547,Africa/Douala
2230028,Kontcha,7.96667,12.23333,CM,8018,Africa/Douala
2230285,Bankim,6.08303,11.4905,CM,5727,Africa/Douala
2230599,Kaele,10.10917,14.45083,CM,25199,Africa/Douala
2230641,Jakiri,6.1,10.65,CM,5269,Africa/Douala
2230876,Guider,9.9333,13.94671,CM,84647,Africa/Douala
2231319,Garoua Boulai,5.88333,14.55,CM,46615,Africa/Douala
2231320,Garoua,9.30143,13.39771,CM,436899,Africa/Douala
2231482,Fundong,6.25,10.26667,CM,43509,Africa/Douala
2231504,Foumbot,5.50803,10.6325,CM,84065,Africa/Douala
2231506,Foumban,5.72662,10.89865,CM,92673,Africa/Douala
2231564,Fontem,5.4685,9.8818,CM,42689,Africa/Douala
2231775,Evodoula,4.08333,11.2,CM,1521,Africa/Douala
2231851,Esse,4.1,11.9,CM,3803,Africa/Douala
2231881,Eseka,3.65,10.76667,CM,22221,Africa/Douala
2232239,Edea,3.8,10.13333,CM,203149,Africa/Douala
2232283,Ebolowa,2.9,11.15,CM,87875,Africa/Douala
2232444,Dschang,5.44397,10.05332,CM,96112,Africa/Douala
2232497,Doume,4.23333,13.45,CM,5581,Africa/Douala
2232593,Douala,4.04827,9.70428,CM,1338082,Africa/Douala
2232774,Djohong,6.83333,14.7,CM,4813,Africa/Douala
2232997,Dizangue,3.76667,9.98333,CM,19243,Africa/Douala
2233056,Dimako,4.38333,13.56667,CM,8476,Africa/Douala
2233100,Dibombari,4.1787,9.6561,CM,4811,Africa/Douala
2233118,Diang,4.25,10.01667,CM,2062,Africa/Douala
2233410,Buea,4.1527,9.241,CM,47300,Africa/Douala
2233704,Bonaberi,4.0779,9.6759,CM,8091,Africa/Douala
2233805,Bogo,10.7336,14.60928,CM,16952,Africa/Douala
2234339,Betare Oya,5.6,14.08333,CM,11866,Africa/Douala
2234359,Bertoua,4.57728,13.68459,CM,218111,Africa/Douala
2234455,Belo,6.13333,10.25,CM,8705,Africa/Douala
2234520,Belel,7.05,14.43333,CM,6831,Africa/Douala
2234536,Belabo,4.93333,13.3,CM,22553,Africa/Douala
2234545,Bekondo,4.6819,9.3214,CM,7331,Africa/Douala
2234635,Bazou,5.06001,10.46751,CM,13058,Africa/Douala
2234663,Batouri,4.43333,14.36667,CM,43821,Africa/Douala
2234684,Batibo,5.8358,9.8553,CM,9163,Africa/Douala
2234794,Banyo,6.75,11.81667,CM,40798,Africa/Douala
2234803,Bansoa,5.44836,10.31355,CM,7560,Africa/Douala
2234842,Ngou,5.19685,10.38595,CM,7560,Africa/Douala
2234865,Bangangte,5.14079,10.52535,CM,65385,Africa/Douala
2234904,Bandjoun,5.37568,10.41326,CM,6872,Africa/Douala
2234936,Bana,5.14655,10.27545,CM,5727,Africa/Douala
2234941,Bamusso,4.4591,8.9027,CM,24741,Africa/Douala
2234968,Bamendjou,5.38988,10.33014,CM,6643,Africa/Douala
2234974,Bamenda,5.9597,10.14597,CM,393835,Africa/Douala
2235029,Bali,5.88737,10.01176,CM,72606,Africa/Douala
2235189,Bafoussam,5.47775,10.41759,CM,290768,Africa/Douala
2235194,Bafia,4.75,11.23333,CM,69270,Africa/Douala
2235196,Bafang,5.15705,10.1771,CM,80688,Africa/Douala
2235293,Babanki,6.11667,10.25,CM,9851,Africa/Douala
2235660,Ambam,2.38333,11.28333,CM,8476,Africa/Douala
2235776,Akonolinga,3.76667,12.25,CM,17181,Africa/Douala
2235780,Akono,3.5,11.33333,CM,3821,Africa/Douala
2235814,Akom II,2.78333,10.56667,CM,9709,Africa/Douala
2236053,Abong Mbang,3.98333,13.18333,CM,14661,Africa/Douala
2236568,Uige,-7.60874,15.06131,AO,60008,Africa/Luanda
2236967,Soio,-6.1349,12.36894,AO,67491,Africa/Luanda
2239001,Nzeto,-7.23116,12.8666,AO,18352,Africa/Luanda
2239076,N'dalatando,-9.29782,14.91162,AO,383100,Africa/Luanda
2239520,Mbanza Congo,-6.26703,14.2401,AO,24220,Africa/Luanda
2239862,Malanje,-9.54015,16.34096,AO,87046,Africa/Luanda
2240449,Luanda,-8.83682,13.23432,AO,2776168,Africa/Luanda
2242001,Caxito,-8.57848,13.66425,AO,28224,Africa/Luanda
2242885,Camabatela,-8.18812,15.37495,AO,12837,Africa/Luanda
2243271,Cabinda,-5.55,12.2,AO,66020,Africa/Luanda
2243940,Ziguinchor,12.58333,-16.27194,SN,159778,Africa/Dakar
2244177,Velingara,13.15,-14.11667,SN,22441,Africa/Dakar
2244322,Touba,14.85,-15.88333,SN,529176,Africa/Dakar
2244436,Tionk Essil,12.78556,-16.52167,SN,8151,Africa/Dakar
2244616,Tiebo,14.63333,-16.23333,SN,100289,Africa/Dakar
2244786,Tiadiaye,14.41667,-16.7,SN,10853,Africa/Dakar
2244799,Thies Nones,14.78333,-16.96667,SN,252320,Africa/Dakar
2244991,Tambacounda,13.77073,-13.66734,SN,78800,Africa/Dakar
2245241,Sokone,13.88333,-16.36667,SN,11680,Africa/Dakar
2245666,Seme,15.19422,-12.94482,SN,5075,Africa/Dakar
2245704,Sedhiou,12.70806,-15.55694,SN,19702,Africa/Dakar
2246452,Saint-Louis,16.01793,-16.48962,SN,176000,Africa/Dakar
2246522,Rosso,16.42028,-15.79834,SN,9923,Africa/Dakar
2246544,Richard-Toll,16.4625,-15.70083,SN,44752,Africa/Dakar
2246585,Ranerou,15.3,-13.96667,SN,1426,Africa/Dakar
2246606,Pout,14.77099,-17.06107,SN,17752,Africa/Dakar
2246608,Pourham,14.35,-16.41667,SN,24146,Africa/Dakar
2246641,Polel Diaoube,15.26667,-13,SN,3000,Africa/Dakar
2246678,Pikine,14.76457,-17.39071,SN,874062,Africa/Dakar
2246780,Passi,13.98333,-16.26667,SN,6367,Africa/Dakar
2246901,Oussouye,12.485,-16.54694,SN,4107,Africa/Dakar
2246922,Ouro Sogui,15.60588,-13.3223,SN,14888,Africa/Dakar
2247044,Waounde,15.26367,-12.86821,SN,9085,Africa/Dakar
2247157,Nioro du Rip,13.75,-15.8,SN,20711,Africa/Dakar
2247381,Nguekhokh,14.51255,-17.00447,SN,17885,Africa/Dakar
2247660,Ndofane,13.91667,-15.93333,SN,9946,Africa/Dakar
2247684,Ndioum,16.51293,-14.64706,SN,13198,Africa/Dakar
2247813,Ndibene Dahra,15.3338,-15.4766,SN,27741,Africa/Dakar
2248409,Mekhe,15.1097,-16.6218,SN,19242,Africa/Dakar
2248698,Mbake,14.79032,-15.90803,SN,74100,Africa/Dakar
2248752,Matam,15.65587,-13.25544,SN,15306,Africa/Dakar
2248777,Marsassoum,12.8275,-15.98056,SN,6817,Africa/Dakar
2249222,Louga,15.61867,-16.22436,SN,67154,Africa/Dakar
2249554,Koungheul,13.98333,-14.8,SN,14725,Africa/Dakar
2249782,Kolda,12.88333,-14.95,SN,58809,Africa/Dakar
2249901,Khombole,14.76667,-16.7,SN,12061,Africa/Dakar
2250645,Kedougou,12.5579,-12.1743,SN,17922,Africa/Dakar
2250677,Kayar,14.91893,-17.11978,SN,17193,Africa/Dakar
2250805,Kaolack,14.1825,-16.25333,SN,172305,Africa/Dakar
2250849,Kanel,15.4916,-13.17627,SN,10165,Africa/Dakar
2251007,Kaffrine,14.10594,-15.5508,SN,28396,Africa/Dakar
2251084,Joal-Fadiout,14.16667,-16.83333,SN,36735,Africa/Dakar
2251230,Guinguineo,14.26667,-15.95,SN,15395,Africa/Dakar
2251292,Gueoul,15.48333,-16.35,SN,10918,Africa/Dakar
2251544,Golere,16.25575,-14.10165,SN,5461,Africa/Dakar
